Time,Simulated Time,Failed on,Reward,Altitude (m),Roll,Pitch,Yaw,X_distance,Y_distance
3.1,6.01,PitchRollAlt,-29.068,943.969,-1.566,0.983,-0.994,1.0,1.0
3.6,6.01,RollAlt,-30.098,954.722,-4.152,0.52,-0.568,-0.0,1.0
4.2,6.01,PitchAlt,-37.678,943.251,0.417,1.412,3.1,-1.0,3.0
4.7,6.01,Alt,2.642,964.53,-0.4,0.517,1.14,-0.0,1.0
5.5,6.01,Alt,2.424,936.447,0.167,0.348,5.14,-0.0,1.0
5.9,6.01,RollAlt,-25.409,965.549,-1.027,0.134,-3.755,-0.0,2.0
6.4,6.01,Alt,-7.251,941.814,0.143,0.185,0.164,-0.0,6.0
6.9,6.01,PitchAlt,-24.231,942.905,-0.148,0.613,3.69,-0.0,-0.0
7.4,6.01,PitchRollAlt,-31.094,961.533,-1.821,0.994,-1.346,1.0,2.0
8.0,6.01,PitchRollAlt,-35.141,944.198,-4.215,-0.802,-1.493,-0.0,1.0
8.5,6.01,Alt,3.529,1004.122,0.055,0.03,-0.185,-0.0,-0.0
8.9,6.01,PitchRollAlt,-15.555,960.552,-1.056,1.211,-1.128,-0.0,2.0
9.4,6.01,Alt,3.582,1001.866,-0.505,0.027,4.169,-0.0,-0.0
9.9,6.01,PitchRollAlt,-27.055,929.637,-0.941,1.289,-2.994,-0.0,2.0
10.5,6.01,PitchRollAlt,-23.549,939.384,-1.884,1.256,-1.067,-0.0,2.0
11.0,6.01,RollAlt,-21.622,955.266,-2.024,-0.482,-5.323,-0.0,4.0
11.6,6.01,RollAlt,-24.609,928.599,-1.242,-0.258,-10.585,1.0,5.0
12.3,6.01,RollAlt,-28.069,945.954,-3.388,0.242,-1.705,-1.0,5.0
12.8,6.01,PitchRollAlt,-35.544,930.856,-2.161,1.236,-1.734,-0.0,3.0
13.5,6.01,PitchRollAlt,-29.833,945.101,-1.693,1.31,-0.099,-0.0,2.0
14.0,6.01,PitchAlt,-8.374,998.691,-0.085,-0.643,3.241,1.0,2.0
14.6,6.01,RollAlt,-27.619,965.779,-1.79,-0.1,-4.367,1.0,1.0
15.1,6.01,PitchRollAlt,-28.607,941.36,-3.393,0.851,-1.758,-2.0,4.0
15.6,6.01,PitchAlt,-28.237,943.397,0.154,-1.481,-6.683,-0.0,3.0
16.1,6.01,PitchRollAlt,-37.083,937.944,-0.857,-0.838,-5.707,1.0,3.0
16.6,6.01,PitchAlt,-34.029,937.464,0.134,0.606,4.642,-0.0,1.0
17.1,6.01,PitchAlt,-20.3,933.482,0.128,0.738,1.895,-0.0,-0.0
17.6,6.01,RollAlt,-33.502,949.668,-3.603,-0.395,0.12,-0.0,3.0
18.1,6.01,RollAlt,-29.329,961.841,-4.564,0.037,-2.033,-1.0,1.0
18.7,6.01,Alt,-5.004,963.429,-0.332,-0.081,-2.094,-0.0,2.0
19.2,6.01,PitchRollAlt,-24.169,933.848,-1.389,0.977,-6.342,-0.0,2.0
19.8,6.01,Alt,1.004,934.642,0.23,0.568,5.31,-0.0,-0.0
20.3,6.01,RollAlt,-22.656,927.029,0.659,-0.059,8.774,-0.0,6.0
20.8,6.01,PitchRollAlt,-39.756,956.295,-1.759,-0.99,-4.107,-0.0,3.0
21.4,6.01,PitchAlt,-2.038,1001.474,0.019,-0.591,-4.55,-0.0,1.0
21.9,6.01,PitchRollAlt,-21.29,947.8,-1.359,1.047,-1.146,-0.0,2.0
22.5,6.01,PitchRollAlt,-49.001,948.064,-2.121,-0.753,-5.131,1.0,2.0
23.0,6.01,RollAlt,-37.814,951.206,-2.333,-0.389,-2.83,1.0,4.0
23.5,6.01,PitchRollAlt,-20.257,955.995,-2.975,1.153,-2.221,-0.0,3.0
24.1,6.01,PitchRollAlt,-27.142,948.233,-2.712,1.281,-1.21,1.0,3.0
24.7,6.01,PitchRollAlt,-26.406,942.811,2.233,-0.653,5.371,-0.0,2.0
25.2,6.01,RollAlt,-26.219,928.08,-2.636,0.315,-3.044,1.0,5.0
25.6,6.01,PitchAlt,-21.278,941.596,-0.104,0.863,2.838,-1.0,-0.0
26.1,6.01,Alt,-20.405,927.358,0.461,0.325,5.794,-0.0,2.0
26.7,6.01,RollAlt,-26.003,934.7,-2.471,-0.426,-3.888,1.0,6.0
27.2,6.01,PitchRollAlt,-24.485,927.345,-0.827,1.33,0.517,-0.0,1.0
27.7,6.01,RollAlt,-47.631,926.278,-1.153,-0.077,-8.048,-0.0,3.0
28.1,6.01,PitchRollAlt,-30.261,942.19,-3.847,-0.992,-1.577,-0.0,1.0
28.6,6.01,PitchRollAlt,-33.583,948.735,-4.271,-0.65,-1.468,-0.0,1.0
29.2,6.01,Alt,-3.245,930.811,0.438,0.35,7.203,-0.0,2.0
29.7,6.01,PitchRollAlt,-18.233,949.05,-0.911,0.682,-0.903,1.0,2.0
30.2,6.01,PitchRollAlt,-27.55,974.182,-1.795,1.203,-0.328,-1.0,-0.0
30.7,6.01,PitchAlt,-26.577,948.016,-0.058,1.184,4.903,-1.0,1.0
31.2,6.01,RollAlt,-29.051,947.951,-3.538,-0.013,-1.263,-0.0,4.0
31.8,6.01,RollAlt,-29.88,932.839,-0.957,0.104,-9.701,1.0,4.0
32.3,6.01,PitchRollAlt,-34.982,961.359,-3.019,-0.802,-3.131,-1.0,1.0
32.8,6.01,PitchAlt,-25.765,928.881,-0.356,1.198,1.205,-0.0,1.0
33.3,6.01,Alt,-15.436,928.762,0.225,0.506,4.557,-0.0,-0.0
33.8,6.01,PitchAlt,-9.767,929.598,0.446,0.65,8.287,-1.0,7.0
34.4,6.01,Alt,1.577,972.082,-0.555,0.543,1.635,-0.0,-0.0
34.9,6.01,PitchRollAlt,-25.876,940.98,-0.985,-0.751,-7.509,-0.0,2.0
35.4,6.01,PitchAlt,-34.295,946.821,-0.559,-1.277,-4.193,-0.0,2.0
35.9,6.01,RollAlt,-19.071,936.657,-1.604,-0.241,-6.576,1.0,4.0
36.4,6.01,PitchAlt,-9.239,959.43,-0.298,0.768,3.569,-0.0,-0.0
36.9,6.01,RollAlt,-28.351,926.825,-2.031,0.169,-7.112,1.0,5.0
37.4,6.01,PitchRollAlt,-40.563,944.643,-0.922,-0.61,-6.657,1.0,2.0
37.9,6.01,PitchAlt,-11.293,950.296,0.202,1.044,2.749,-0.0,2.0
38.4,6.01,PitchAlt,-23.862,931.578,0.182,1.208,3.189,-0.0,3.0
38.8,6.01,RollAlt,-27.322,932.77,-2.147,-0.319,-6.011,1.0,6.0
39.4,6.01,PitchAlt,-23.408,938.081,0.102,0.93,3.2,-0.0,-0.0
39.9,6.01,RollAlt,-27.841,940.06,2.576,0.186,5.704,-0.0,4.0
40.4,6.01,PitchRollAlt,-13.203,954.714,-1.156,0.767,-0.958,-0.0,1.0
41.0,6.01,RollAlt,-31.7,981.528,-1.095,0.426,-1.216,1.0,1.0
41.5,6.01,PitchRollAlt,-35.0,965.424,-1.369,0.734,-0.814,-0.0,1.0
42.1,6.01,RollAlt,-29.255,936.448,-0.866,0.192,-7.207,-0.0,1.0
42.6,6.01,Alt,-10.981,974.274,-0.2,0.459,6.454,3.0,-0.0
43.0,6.01,PitchRollAlt,-21.742,931.856,-2.149,1.082,-2.119,1.0,4.0
43.5,6.01,PitchRollAlt,-27.35,943.061,-1.54,0.948,-5.305,1.0,3.0
44.0,6.01,PitchRollAlt,-14.717,946.418,-1.226,0.935,-0.99,1.0,1.0
44.6,6.01,PitchRollAlt,-23.172,958.389,-2.282,-0.964,-5.797,-1.0,3.0
45.1,6.01,Alt,-2.382,956.33,-0.407,-0.191,-1.102,-0.0,-3.0
45.6,6.01,RollAlt,-24.269,934.619,-3.318,-0.079,-2.054,1.0,8.0
46.1,6.01,PitchRollAlt,-57.332,947.055,-1.161,-0.691,-3.792,-0.0,2.0
46.6,6.01,PitchRollAlt,-26.064,929.992,-1.043,1.436,-0.81,-0.0,1.0
47.2,6.01,PitchRollAlt,-29.966,943.736,-0.825,1.042,0.063,-0.0,1.0
47.7,6.01,RollAlt,-29.676,960.78,-2.15,-0.487,-3.28,1.0,2.0
48.2,6.01,RollAlt,-19.0,947.12,-2.618,-0.383,-3.716,1.0,6.0
48.7,6.01,PitchAlt,-19.987,930.543,0.459,0.698,3.803,-0.0,2.0
49.2,6.01,RollAlt,-32.672,929.934,-3.436,0.358,-2.37,-1.0,6.0
49.7,6.01,Alt,2.879,995.067,-0.054,0.159,0.237,1.0,-2.0
50.2,6.01,RollAlt,-24.763,928.328,-1.155,-0.34,-7.947,-0.0,3.0
50.7,6.01,PitchRollAlt,-19.397,942.391,-1.245,0.989,-0.661,-0.0,1.0
51.2,6.01,PitchAlt,-38.733,934.026,-6.239,-1.025,1.215,1.0,4.0
51.6,6.01,PitchRollAlt,-21.637,952.832,1.668,1.439,4.896,-0.0,3.0
52.2,6.01,PitchAlt,-22.989,933.313,0.464,0.806,6.64,-0.0,1.0
52.7,6.01,PitchRollAlt,-20.569,946.755,-0.655,1.062,0.649,-0.0,1.0
53.2,6.01,PitchAlt,-22.094,953.496,-0.48,0.893,-0.016,-0.0,1.0
53.7,6.01,PitchAlt,-35.589,955.492,-0.394,1.149,4.973,-0.0,1.0
54.1,6.01,PitchAlt,-25.85,930.312,0.021,1.074,2.198,-0.0,1.0
54.7,6.01,RollAlt,-20.997,941.752,-2.151,0.479,-5.344,1.0,4.0
55.2,6.01,RollAlt,-23.875,926.559,-2.568,0.381,-3.112,-0.0,5.0
55.7,6.01,PitchRollAlt,-22.881,934.987,-1.166,1.173,-1.313,-0.0,1.0
56.1,6.01,PitchRollAlt,-6.261,950.208,-0.575,0.828,-1.88,-0.0,1.0
56.6,6.01,RollAlt,-22.003,930.414,-2.021,0.039,-4.927,1.0,5.0
57.2,6.01,PitchAlt,-24.519,945.129,0.001,1.327,1.977,-0.0,2.0
57.7,6.01,Alt,-11.771,953.367,-0.193,0.441,1.465,-0.0,3.0
58.1,6.01,RollAlt,-28.506,929.323,-2.222,-0.191,-2.755,1.0,4.0
58.6,6.01,RollAlt,-30.121,950.043,-1.639,-0.455,-6.749,1.0,4.0
59.1,6.01,RollAlt,-25.407,932.007,-2.891,-0.378,-2.503,-0.0,8.0
59.6,6.01,PitchRollAlt,-26.932,932.122,-1.704,-1.427,-4.24,1.0,5.0
60.1,6.01,PitchAlt,-25.124,930.57,-0.395,1.198,1.168,-0.0,1.0
60.7,6.01,RollAlt,-21.105,953.55,-1.142,0.471,-3.177,-0.0,2.0
61.1,6.01,PitchAlt,-3.014,969.503,-0.347,0.601,1.02,-1.0,1.0
61.6,6.01,PitchRollAlt,-23.209,951.247,-2.265,-0.828,-4.765,-0.0,4.0
62.2,6.01,RollAlt,-22.437,931.079,-1.244,-0.266,-7.536,1.0,4.0
62.7,6.01,PitchAlt,-27.687,930.723,0.12,0.705,3.877,1.0,1.0
63.2,6.01,PitchRollAlt,-28.847,939.758,-1.194,1.216,-0.326,-0.0,1.0
63.7,6.01,PitchRollAlt,-22.762,953.411,-1.177,0.883,-0.436,-0.0,1.0
64.2,6.01,PitchRollAlt,-22.316,930.14,-1.875,0.909,-1.965,1.0,3.0
64.7,6.01,Alt,2.177,997.919,0.268,-0.079,-0.836,1.0,2.0
65.2,6.01,PitchAlt,-14.036,943.397,0.049,0.716,2.053,-0.0,-0.0
65.7,6.01,Alt,-16.489,929.67,0.253,0.519,2.516,-0.0,1.0
66.2,6.01,RollAlt,-28.193,991.33,-0.857,0.147,-1.547,1.0,1.0
66.7,6.01,PitchRollAlt,-23.036,937.338,-1.842,0.96,-1.42,1.0,2.0
67.3,6.01,PitchRollAlt,-6.925,946.016,-1.04,0.696,-2.273,-0.0,1.0
67.8,6.01,RollAlt,-21.775,937.849,-1.802,-0.463,-5.861,1.0,4.0
68.2,6.01,PitchRollAlt,-33.66,964.232,-1.365,1.092,-1.016,-0.0,2.0
68.7,6.01,RollAlt,-31.869,925.675,-1.772,-0.367,-5.737,1.0,5.0
69.2,6.01,RollAlt,-26.402,936.528,-1.845,-0.141,-5.598,1.0,4.0
69.8,6.01,RollAlt,-32.964,937.127,-2.632,0.309,-2.77,1.0,6.0
70.2,6.01,RollAlt,-23.855,931.429,-1.402,-0.247,-7.384,1.0,4.0
70.7,6.01,Alt,1.083,989.952,0.263,-0.067,-0.284,1.0,-0.0
71.2,6.01,PitchAlt,-19.732,967.521,-0.429,1.115,0.204,-0.0,-0.0
71.7,6.01,PitchAlt,-10.453,933.723,0.028,0.627,2.704,-0.0,1.0
72.3,6.01,PitchRollAlt,-25.612,944.111,-1.178,-0.851,-7.936,1.0,2.0
72.7,6.01,Alt,1.623,970.82,-0.223,0.524,-1.237,-0.0,1.0
73.2,6.01,PitchRollAlt,-35.702,962.358,-4.37,0.738,-1.106,-1.0,-0.0
73.7,6.01,Alt,-10.379,932.073,0.254,0.382,6.853,3.0,4.0
74.2,6.01,PitchRollAlt,-28.069,939.961,-1.217,-0.686,-6.445,1.0,3.0
74.8,6.01,PitchRollAlt,-12.966,948.089,0.61,1.15,3.176,-1.0,3.0
75.3,6.01,RollAlt,-28.976,953.491,-2.127,0.279,-3.584,-0.0,3.0
75.8,6.01,PitchRollAlt,-35.483,958.659,-1.013,0.864,0.214,-0.0,1.0
76.4,6.01,PitchRollAlt,-29.551,937.341,-1.93,0.673,-4.3,1.0,4.0
76.9,6.01,RollAlt,-24.761,957.501,-2.049,0.06,-2.738,1.0,3.0
77.5,6.01,RollAlt,-32.179,948.643,-2.358,0.208,-3.305,-0.0,5.0
78.0,6.01,RollAlt,-27.67,968.934,-1.528,-0.19,-5.209,1.0,1.0
78.5,6.01,PitchRollAlt,-15.881,962.867,-0.985,0.678,-1.198,-0.0,1.0
78.9,6.01,PitchRollAlt,-33.794,948.458,-3.152,-1.071,-3.181,-0.0,2.0
79.4,6.01,RollAlt,-31.531,960.303,-3.046,-0.053,-2.188,-0.0,4.0
80.0,6.01,PitchRollAlt,-21.256,933.452,-3.166,0.662,-2.289,-1.0,5.0
80.4,6.01,RollAlt,-26.792,928.629,-0.834,-0.252,-8.172,1.0,2.0
80.9,6.01,PitchAlt,-0.762,979.775,-0.111,0.604,0.628,-0.0,1.0
81.4,6.01,PitchAlt,-21.888,937.277,-0.269,0.985,1.417,1.0,1.0
81.9,6.01,Alt,2.181,939.391,0.159,0.395,4.97,-0.0,1.0
82.4,6.01,RollAlt,-34.048,964.378,-1.507,-0.107,-4.283,-0.0,1.0
82.9,6.01,PitchAlt,-10.641,948.654,-0.467,0.8,-0.323,-0.0,1.0
83.4,6.01,PitchAlt,-18.287,944.263,-0.415,0.928,-0.477,-0.0,1.0
83.9,6.01,PitchRollAlt,-18.815,965.209,-1.396,0.64,-2.864,-0.0,2.0
84.4,6.01,RollAlt,-15.109,944.302,-2.202,0.377,-4.405,1.0,5.0
84.9,6.01,RollAlt,-13.724,939.801,-1.755,0.392,-6.565,1.0,4.0
85.4,6.01,PitchRollAlt,-26.546,931.669,-1.251,0.694,-6.384,1.0,3.0
85.9,6.01,RollAlt,-21.38,954.664,-1.949,0.409,-4.656,1.0,4.0
86.4,6.01,PitchAlt,-21.153,937.585,-0.049,0.784,1.485,-0.0,1.0
86.9,6.01,RollAlt,-34.282,946.108,-2.11,0.154,-2.043,1.0,3.0
87.5,6.01,PitchRollAlt,-25.143,929.469,-1.769,0.804,-3.099,1.0,4.0
88.0,6.01,PitchAlt,-21.621,939.709,-0.031,0.803,0.94,-0.0,1.0
88.5,6.01,PitchRollAlt,-27.258,950.462,-0.877,1.22,1.225,-0.0,2.0
89.0,6.01,PitchAlt,-15.916,944.506,0.004,0.978,3.208,-0.0,2.0
89.6,6.01,PitchAlt,-18.365,934.305,-0.495,0.979,0.014,1.0,2.0
90.1,6.01,PitchRollAlt,-28.504,955.942,1.324,1.27,5.39,-3.0,-0.0
90.6,6.01,RollAlt,-33.702,940.511,-1.898,0.495,-3.172,-0.0,4.0
91.1,6.01,Alt,0.542,960.224,-0.319,0.231,-1.308,-0.0,2.0
91.6,6.01,PitchRollAlt,-13.614,941.405,-1.028,0.904,-2.183,1.0,2.0
92.0,6.01,RollAlt,-36.181,931.803,-1.375,0.182,-9.217,1.0,4.0
92.6,6.01,PitchAlt,-1.593,935.422,0.294,0.671,4.493,-1.0,1.0
93.0,6.01,PitchRollAlt,-12.914,936.251,-1.177,0.813,-3.806,1.0,3.0
93.5,6.01,PitchAlt,-0.841,939.655,-0.04,0.637,4.166,1.0,-0.0
94.0,6.01,RollAlt,-15.377,938.45,-2.4,0.378,-4.243,1.0,5.0
94.5,6.01,Alt,-9.188,933.777,0.429,0.248,5.886,1.0,2.0
95.0,6.01,Alt,-5.697,951.655,-0.107,0.557,1.277,-0.0,-2.0
95.5,6.01,PitchRollAlt,-24.227,970.423,-1.627,1.41,-0.721,-2.0,-0.0
96.1,6.01,RollAlt,-21.81,936.898,-1.458,0.044,-5.669,1.0,3.0
96.6,6.01,Alt,-1.413,929.156,0.228,0.342,4.619,-0.0,1.0
97.1,6.01,PitchRollAlt,-27.19,940.461,-1.237,0.976,-1.692,-0.0,1.0
97.7,6.01,PitchRollAlt,-15.217,982.591,-0.845,0.811,-0.757,-0.0,1.0
98.2,6.01,PitchRollAlt,-17.922,936.756,-1.726,0.894,-2.586,-0.0,2.0
98.7,6.01,Alt,-3.573,973.387,-0.161,0.373,-1.645,-0.0,8.0
99.3,6.01,PitchRollAlt,-25.074,947.471,-1.092,0.724,-0.839,2.0,3.0
99.8,6.01,PitchAlt,-32.629,953.46,0.263,0.777,1.758,-0.0,-0.0
100.4,6.01,PitchRollAlt,-14.615,944.405,-0.59,0.915,0.107,-0.0,1.0
100.8,6.01,PitchAlt,-8.921,939.017,0.324,0.93,4.176,1.0,-0.0
101.3,6.01,Alt,-2.933,984.901,0.161,0.012,-2.772,-1.0,-0.0
101.8,6.01,PitchAlt,-22.331,930.67,-0.111,0.94,1.894,-0.0,-0.0
102.3,6.01,PitchRollAlt,-23.964,945.117,-0.591,1.048,1.015,-0.0,2.0
102.8,6.01,PitchRollAlt,-24.057,947.049,-2.619,1.18,-2.883,-0.0,4.0
103.3,6.01,PitchRollAlt,-17.587,966.659,-1.285,1.018,-1.618,-0.0,1.0
103.8,6.01,RollAlt,-22.667,930.647,-1.928,0.004,-5.994,1.0,3.0
104.3,6.01,PitchRollAlt,-23.763,952.958,-1.261,0.64,-1.512,-0.0,2.0
104.7,6.01,PitchRollAlt,-31.862,967.006,-2.681,1.217,-0.81,-2.0,-0.0
105.3,6.01,Alt,3.777,1015.519,0.362,0.023,0.019,1.0,1.0
105.8,6.01,Alt,-9.079,962.731,-0.359,0.022,2.48,1.0,1.0
106.2,6.01,PitchRollAlt,-33.66,950.221,-3.135,0.786,-1.368,-1.0,3.0
106.7,6.01,PitchRollAlt,-33.662,958.807,-1.806,1.096,-0.788,-0.0,1.0
107.2,6.01,PitchAlt,-30.244,948.61,-0.46,0.991,1.782,-0.0,1.0
107.7,6.01,RollAlt,-15.512,940.723,-2.674,-0.001,-4.073,-0.0,6.0
108.2,6.01,RollAlt,-40.367,924.437,-1.79,0.227,-4.893,1.0,4.0
108.7,6.01,RollAlt,-39.536,955.052,-1.6,0.375,-2.189,1.0,2.0
109.2,6.01,RollAlt,-25.997,940.963,-1.518,0.112,-6.278,1.0,2.0
109.6,6.01,PitchAlt,-16.119,953.439,-0.507,1.045,0.984,-0.0,2.0
110.2,6.01,PitchAlt,-21.737,961.428,-0.346,0.972,1.187,-0.0,1.0
110.7,6.01,Alt,-5.77,938.492,0.017,0.482,-5.704,3.0,-0.0
111.3,6.01,PitchRollAlt,-23.317,940.782,-1.463,-0.635,-6.658,1.0,4.0
111.8,6.01,RollAlt,-16.595,977.642,-1.148,0.329,-5.118,-0.0,1.0
112.3,6.01,RollAlt,-33.543,958.723,-1.716,0.224,-2.56,1.0,1.0
112.8,6.01,RollAlt,-30.058,947.817,-3.406,0.494,-1.783,-1.0,3.0
113.3,6.01,PitchRollAlt,-26.478,949.17,-2.689,1.258,-1.504,-1.0,3.0
113.8,6.01,Alt,-5.044,930.221,0.049,0.238,5.847,-0.0,3.0
114.3,6.01,PitchRollAlt,-11.947,935.63,-1.07,0.672,-1.461,1.0,3.0
114.8,6.01,PitchAlt,-9.622,947.508,-0.345,0.788,-0.055,-0.0,1.0
115.4,6.01,PitchRollAlt,-15.672,946.948,-2.038,0.898,-3.671,-0.0,3.0
115.9,6.01,Alt,0.915,978.806,-0.294,0.14,-2.648,-0.0,2.0
116.4,6.01,PitchAlt,-33.606,965.394,-0.278,1.154,2.921,-0.0,-0.0
116.8,6.01,PitchAlt,-20.952,934.917,0.151,0.907,2.956,-0.0,1.0
117.3,6.01,Alt,-23.755,967.785,0.118,0.407,2.474,-0.0,-0.0
117.8,6.01,PitchAlt,-12.994,951.535,-0.326,0.691,0.312,1.0,-0.0
118.3,6.01,PitchRollAlt,-29.14,952.483,-1.76,0.842,-1.905,1.0,2.0
118.8,6.01,PitchRollAlt,-14.688,928.883,-1.502,0.852,-3.538,1.0,2.0
119.3,6.01,PitchRollAlt,-15.5,955.288,-2.156,0.72,-3.583,1.0,4.0
119.8,6.01,PitchRollAlt,-34.473,952.818,-0.812,1.126,0.437,-0.0,1.0
120.3,6.01,PitchRollAlt,-29.315,948.027,-0.958,1.117,-0.126,-0.0,2.0
120.8,6.01,Alt,-35.697,957.065,-0.049,0.494,2.455,-0.0,-0.0
121.3,6.01,RollAlt,-23.499,963.838,-2.385,-0.349,-4.677,-0.0,2.0
121.8,6.01,Alt,-9.517,934.594,0.131,0.544,1.739,-1.0,1.0
122.2,6.01,Alt,2.763,964.945,-0.283,0.442,-0.419,1.0,1.0
122.8,6.01,PitchAlt,-9.022,945.759,-0.565,0.874,-0.569,-0.0,3.0
123.3,6.01,RollAlt,-34.716,929.555,-0.734,-0.072,-10.072,1.0,3.0
123.8,6.01,PitchRollAlt,-23.339,946.331,-2.22,-1.013,-5.858,-0.0,3.0
124.2,6.01,Alt,-10.021,933.45,0.137,0.021,6.846,-0.0,3.0
124.7,6.01,PitchAlt,-24.937,966.208,-0.546,1.166,0.557,-1.0,-0.0
125.3,6.01,PitchRollAlt,-15.561,958.64,-0.638,0.733,-0.21,-0.0,1.0
125.8,6.01,Alt,-1.093,927.737,0.329,0.324,3.479,-0.0,2.0
126.3,6.01,PitchRollAlt,-15.509,935.307,-1.029,0.933,-2.845,1.0,2.0
126.8,6.01,PitchRollAlt,-13.825,930.894,-1.166,0.922,-2.318,-0.0,1.0
127.3,6.01,Alt,-3.901,934.07,0.18,0.466,5.795,-0.0,2.0
127.8,6.01,PitchRollAlt,-24.331,930.396,-2.108,0.625,-4.267,-0.0,5.0
128.3,6.01,RollAlt,-25.227,953.287,-1.843,0.35,-3.346,1.0,2.0
128.8,6.01,PitchRollAlt,-11.84,966.827,-0.635,0.931,-0.382,1.0,1.0
129.3,6.01,PitchAlt,-19.536,934.216,0.517,0.631,8.443,1.0,1.0
129.7,6.01,RollAlt,-31.716,954.881,-3.232,0.541,-1.77,-1.0,2.0
130.3,6.01,PitchAlt,-19.248,940.154,-0.053,0.727,1.341,1.0,-0.0
130.8,6.01,RollAlt,-22.193,930.745,-1.88,0.413,-3.729,1.0,3.0
131.3,6.01,PitchAlt,-33.562,940.76,0.14,0.958,3.159,-0.0,1.0
131.8,6.01,PitchRollAlt,-26.108,946.21,-2.667,-0.891,-3.448,-0.0,4.0
132.3,6.01,PitchRollAlt,-14.029,959.713,-1.333,0.876,-2.071,-0.0,2.0
132.9,6.01,Alt,-45.538,935.142,0.544,0.404,5.677,1.0,-0.0
133.4,6.01,PitchAlt,-27.224,937.25,-0.529,0.795,-1.315,-0.0,3.0
133.9,6.01,PitchRollAlt,-26.25,946.771,2.696,-0.708,4.83,-0.0,3.0
134.5,6.01,PitchRollAlt,-13.977,941.485,-0.694,0.846,-0.503,-0.0,1.0
135.0,6.01,PitchRollAlt,-30.598,949.613,-2.937,1.176,1.638,-0.0,3.0
135.6,6.01,PitchAlt,-26.167,952.891,0.277,1.426,-0.43,-0.0,2.0
136.0,6.01,Alt,2.391,977.954,-0.127,0.047,-1.015,-1.0,1.0
136.5,6.01,PitchAlt,-26.165,935.356,0.336,1.203,6.378,1.0,-5.0
137.0,6.01,RollAlt,-22.558,936.855,-1.021,-0.343,-8.781,1.0,3.0
137.5,6.01,Alt,-11.346,942.54,0.253,0.574,1.312,-0.0,6.0
138.0,6.01,PitchRollAlt,-15.353,954.066,-2.065,0.901,-3.359,-0.0,3.0
138.5,6.01,RollAlt,-20.7,939.655,-3.093,0.095,-2.519,-0.0,5.0
139.1,6.01,RollAlt,-19.026,930.254,-1.757,0.168,-6.578,1.0,4.0
139.6,6.01,PitchRollAlt,-15.149,945.829,-0.578,1.06,-0.019,-0.0,2.0
140.1,6.01,PitchRollAlt,-12.751,928.232,-0.614,0.949,-1.095,-0.0,1.0
140.7,6.01,PitchRollAlt,-33.04,963.575,-1.462,1.127,-0.027,-0.0,-0.0
141.2,6.01,Alt,-4.816,938.536,0.242,0.505,3.149,1.0,-5.0
141.7,6.01,PitchRollAlt,-17.079,961.885,-0.668,0.928,-1.527,-0.0,2.0
142.2,6.01,RollAlt,-24.569,969.973,-1.236,0.38,-2.89,1.0,2.0
142.7,6.01,PitchRollAlt,-26.276,968.713,-2.377,0.788,-2.748,-0.0,2.0
143.3,6.01,PitchRollAlt,-27.159,977.551,-1.114,0.77,-0.887,-0.0,1.0
143.8,6.01,Alt,3.662,956.376,0.035,0.384,2.181,-0.0,-0.0
144.3,6.01,RollAlt,-30.181,930.534,-1.184,0.511,-5.277,1.0,3.0
144.8,6.01,Alt,3.865,957.891,0.181,0.564,4.194,-0.0,1.0
145.3,6.01,PitchAlt,-1.651,933.632,0.327,0.601,4.413,-0.0,2.0
145.9,6.01,PitchRollAlt,-11.349,946.608,-1.047,1.003,-1.924,1.0,2.0
146.4,6.01,PitchAlt,-10.822,946.87,-0.342,0.721,-0.465,-0.0,1.0
146.9,6.01,PitchAlt,-8.535,939.058,-0.346,0.934,-0.287,-0.0,2.0
147.4,6.01,PitchAlt,-19.263,945.386,-0.435,1.276,1.485,-0.0,2.0
147.8,6.01,PitchRollAlt,-16.645,974.858,-0.979,0.85,-1.06,-0.0,1.0
148.4,6.01,PitchAlt,-46.937,932.0,0.294,0.946,1.943,-0.0,2.0
148.9,6.01,RollAlt,-11.59,942.469,-1.06,0.485,-4.102,1.0,2.0
149.3,6.01,PitchAlt,-9.838,954.437,-0.42,0.715,-1.011,-0.0,1.0
149.8,6.01,PitchRollAlt,-27.848,958.464,-2.145,1.055,-2.627,-0.0,2.0
150.3,6.01,PitchAlt,-7.522,942.512,-0.106,0.629,-0.505,1.0,4.0
150.8,6.01,Alt,-9.198,938.581,0.286,0.336,5.988,-0.0,1.0
151.4,6.01,PitchRollAlt,-24.172,945.099,-0.728,1.032,0.306,1.0,1.0
151.9,6.01,Alt,-5.322,975.105,0.056,0.17,3.833,1.0,-0.0
152.4,6.01,PitchAlt,-15.533,951.324,-0.263,0.785,0.227,-0.0,1.0
152.9,6.01,PitchRollAlt,-26.427,983.603,-0.672,0.769,0.326,-0.0,-0.0
153.5,6.01,PitchRollAlt,-18.763,955.049,-0.629,0.748,-0.525,-0.0,1.0
154.0,6.01,Alt,2.194,931.265,0.313,0.515,3.333,1.0,1.0
154.5,6.01,PitchRollAlt,-14.254,943.906,-2.299,0.7,-7.667,1.0,4.0
154.9,6.01,Alt,-3.071,948.887,0.044,0.551,1.289,-0.0,2.0
155.4,6.01,Alt,-27.492,926.916,0.339,-0.066,8.707,-0.0,1.0
156.0,6.01,PitchAlt,-1.149,954.319,-0.464,0.631,-0.858,1.0,-0.0
156.4,6.01,PitchRollAlt,-24.705,961.795,-0.79,0.6,-0.421,-0.0,1.0
156.9,6.01,PitchRollAlt,-28.043,957.555,-0.918,1.131,-3.724,1.0,1.0
157.4,6.01,PitchAlt,-16.135,932.75,-0.345,0.728,-2.951,2.0,3.0
157.9,6.01,Alt,3.713,954.864,-0.061,0.518,-0.254,-0.0,1.0
158.4,6.01,Alt,-22.183,932.974,0.291,0.444,1.643,-0.0,3.0
158.9,6.01,PitchAlt,-6.756,934.532,-0.051,0.784,1.584,1.0,1.0
159.5,6.01,RollAlt,-21.975,935.621,-1.481,-0.378,-7.964,-0.0,-0.0
160.0,6.01,PitchRollAlt,-28.179,954.394,-2.071,1.125,-2.083,-0.0,3.0
160.5,6.01,PitchRollAlt,-22.67,939.014,-3.31,0.583,-1.975,-0.0,5.0
161.1,6.01,Alt,-13.054,983.158,-0.462,-0.462,-4.538,-0.0,1.0
161.6,6.01,PitchAlt,-9.094,941.258,0.319,0.767,3.759,-0.0,2.0
162.1,6.01,Alt,-5.444,934.456,0.097,0.329,6.165,1.0,3.0
162.6,6.01,PitchAlt,-20.311,939.159,-0.026,0.715,-0.637,-0.0,1.0
163.1,6.01,PitchRollAlt,-19.375,952.284,-1.041,0.777,-2.121,1.0,1.0
163.6,6.01,PitchRollAlt,-32.189,975.551,-0.771,1.119,1.385,-1.0,-0.0
164.2,6.01,PitchRollAlt,-32.587,957.413,-1.207,1.235,-0.088,-0.0,1.0
164.7,6.01,PitchRollAlt,-38.156,948.694,0.876,1.349,4.79,-0.0,-0.0
165.2,6.01,PitchRollAlt,-13.981,949.431,-2.166,1.107,-2.522,1.0,3.0
165.7,6.01,PitchRollAlt,-16.124,940.193,-1.402,0.783,-3.059,1.0,2.0
166.3,6.01,PitchAlt,-12.63,939.91,-0.211,0.818,0.008,-0.0,-0.0
166.9,6.01,RollAlt,-25.567,928.328,-1.206,-0.158,-7.274,1.0,3.0
167.4,6.01,PitchAlt,-1.289,954.963,-0.468,0.658,-0.358,-0.0,1.0
167.9,6.01,RollAlt,-27.247,929.291,-1.77,-0.002,-5.683,1.0,4.0
168.4,6.01,PitchRollAlt,-28.529,973.278,-1.601,0.859,-1.263,-0.0,1.0
169.0,6.01,PitchAlt,-35.345,954.121,-0.457,1.068,1.307,1.0,1.0
169.5,6.01,RollAlt,-32.096,960.561,-2.596,0.15,-2.642,1.0,3.0
170.0,6.01,RollAlt,-33.201,963.679,-2.168,0.417,-2.843,1.0,4.0
170.5,6.01,PitchAlt,-14.178,936.241,0.058,1.278,1.14,-1.0,-0.0
170.9,6.01,PitchRollAlt,-18.679,943.759,-0.618,0.915,-0.746,1.0,2.0
171.5,6.01,PitchRollAlt,-9.373,946.451,-1.17,0.786,-5.279,1.0,1.0
172.0,6.01,Alt,-10.484,942.125,0.003,0.478,5.114,-0.0,-0.0
172.4,6.01,PitchAlt,-8.418,932.024,-0.248,0.84,-0.347,-0.0,2.0
172.9,6.01,PitchAlt,-63.842,946.22,-0.039,0.747,5.384,1.0,1.0
173.4,6.01,PitchRollAlt,-25.644,973.376,-0.758,1.328,-0.173,-0.0,1.0
174.0,6.01,RollAlt,-45.213,942.525,-3.335,-0.216,-2.0,-0.0,4.0
174.5,6.01,PitchAlt,-7.949,944.208,0.327,0.695,5.193,-0.0,1.0
175.0,6.01,PitchAlt,-21.284,934.014,-0.449,1.001,-0.706,-0.0,1.0
175.5,6.01,RollAlt,-20.691,943.672,-2.928,-0.212,-3.258,-0.0,5.0
176.0,6.01,PitchAlt,-16.807,943.109,-0.295,0.912,0.534,1.0,2.0
176.5,6.01,PitchRollAlt,-20.518,941.611,-1.875,0.599,-5.166,1.0,5.0
177.0,6.01,Alt,-20.037,977.229,-0.219,0.466,0.986,-0.0,-0.0
177.5,6.01,PitchAlt,-17.021,962.505,0.316,0.898,-0.555,-0.0,2.0
178.0,6.01,PitchAlt,-12.675,928.035,-0.539,0.975,-0.734,1.0,1.0
178.5,6.01,RollAlt,-21.584,953.031,-1.657,0.068,-6.621,1.0,3.0
179.0,6.01,PitchRollAlt,-30.702,971.134,-1.419,0.829,-1.328,-0.0,1.0
179.5,6.01,PitchAlt,-25.298,937.151,-0.157,0.831,1.041,-0.0,1.0
180.0,6.01,RollAlt,-17.961,938.36,-2.503,0.493,-6.126,-0.0,5.0
180.5,6.01,Alt,-15.517,944.077,0.199,0.563,5.698,-0.0,1.0
181.0,6.01,RollAlt,-29.078,936.156,-1.321,-0.314,-10.414,1.0,5.0
181.5,6.01,Alt,1.557,929.486,0.309,0.376,2.312,-0.0,1.0
182.0,6.01,Alt,-6.228,963.469,0.122,0.53,1.131,-0.0,1.0
182.5,6.01,PitchAlt,-9.332,956.977,0.264,0.849,2.191,-0.0,1.0
183.0,6.01,PitchRollAlt,-20.652,945.501,-1.914,0.65,-2.538,1.0,3.0
183.5,6.01,PitchAlt,-14.107,962.327,0.019,0.838,2.773,-0.0,2.0
184.1,6.01,PitchAlt,-11.92,940.41,0.488,0.753,4.755,-0.0,-1.0
184.6,6.01,PitchAlt,-17.926,947.625,0.024,1.307,0.373,-0.0,2.0
185.1,6.01,PitchAlt,-13.802,934.529,0.16,0.821,1.049,-0.0,-0.0
185.6,6.01,PitchRollAlt,-16.555,944.569,-3.014,0.713,-2.667,-0.0,5.0
186.1,6.01,PitchRollAlt,-25.377,940.059,0.704,0.787,7.315,-0.0,1.0
186.6,6.01,PitchAlt,-8.718,942.462,-0.316,0.752,-0.527,-0.0,1.0
187.1,6.01,Alt,-10.386,951.622,-0.111,0.433,3.331,-0.0,-0.0
187.6,6.01,RollAlt,-7.536,982.013,-0.626,0.005,-5.166,1.0,1.0
188.1,6.01,PitchRollAlt,-34.855,937.717,0.775,0.971,5.66,-0.0,2.0
188.5,6.01,RollAlt,-31.611,953.682,-2.956,0.278,-1.914,-0.0,5.0
189.1,6.01,PitchAlt,-21.302,928.217,-0.487,0.964,-1.195,1.0,1.0
189.6,6.01,PitchRollAlt,-0.042,957.495,-0.608,0.616,-1.677,-0.0,1.0
190.1,6.01,RollAlt,-24.883,949.245,-1.898,0.038,-5.609,1.0,3.0
190.6,6.01,PitchRollAlt,-33.336,960.76,-0.916,0.959,-0.351,-0.0,1.0
191.0,6.01,PitchRollAlt,-22.294,951.384,0.633,1.056,2.556,-1.0,1.0
191.6,6.01,Alt,-8.85,931.191,0.52,0.214,6.832,-0.0,1.0
192.1,6.01,PitchRollAlt,-12.989,938.288,-2.215,1.348,-2.302,-0.0,3.0
192.5,6.01,PitchRollAlt,-30.963,966.62,-0.826,1.166,-0.078,-0.0,1.0
193.0,6.01,RollAlt,-23.349,938.072,-1.46,-0.317,-7.611,1.0,3.0
193.5,6.01,Alt,-4.886,970.165,-0.185,-0.058,4.403,-0.0,1.0
194.0,6.01,RollAlt,-16.989,947.369,-2.839,0.396,-3.479,-0.0,3.0
194.5,6.01,PitchRollAlt,-18.483,934.296,-1.014,0.87,-2.511,1.0,2.0
195.0,6.01,Alt,2.149,973.263,-0.116,0.422,1.137,-0.0,1.0
195.5,6.01,RollAlt,-27.904,985.227,-0.59,0.484,0.685,-0.0,-0.0
195.9,6.01,PitchAlt,-0.421,972.614,-0.474,0.604,-2.036,-0.0,2.0
196.5,6.01,PitchRollAlt,-19.76,957.863,-1.907,1.003,-3.831,-0.0,3.0
197.0,6.01,Alt,-4.709,974.325,0.255,0.308,-0.215,8.0,1.0
197.4,6.01,Alt,3.903,962.868,-0.402,0.499,0.748,-0.0,1.0
197.9,6.01,PitchAlt,-38.908,929.351,-0.378,1.226,-2.451,1.0,3.0
198.4,6.01,RollAlt,-6.656,932.395,0.674,0.223,9.078,-0.0,3.0
198.9,6.01,Alt,-9.751,928.576,0.375,0.489,6.346,-0.0,-0.0
199.4,6.01,Alt,-1.427,934.406,0.181,0.485,1.145,-0.0,1.0
199.9,6.01,PitchRollAlt,-19.761,960.858,-0.856,0.666,-1.204,1.0,1.0
200.4,6.01,PitchAlt,-32.104,939.064,0.152,0.64,2.814,-0.0,-0.0
200.9,6.01,PitchRollAlt,-16.217,950.877,-0.583,0.804,-1.461,1.0,1.0
201.4,6.01,PitchAlt,-20.292,942.899,-0.197,0.866,-0.068,1.0,-0.0
201.9,6.01,PitchRollAlt,-12.624,947.618,-2.176,0.885,-3.671,-0.0,4.0
202.5,6.01,PitchRollAlt,-19.368,974.967,-1.167,0.723,-2.36,1.0,1.0
203.0,6.01,Alt,-6.022,931.976,0.272,0.413,4.763,-0.0,2.0
203.5,6.01,PitchAlt,-5.544,960.817,0.053,0.698,0.272,-0.0,1.0
204.1,6.01,Alt,3.079,982.701,-0.217,0.205,-1.138,-0.0,-0.0
204.5,6.01,Alt,3.025,933.41,0.159,0.524,2.105,-0.0,1.0
205.0,6.01,PitchAlt,-30.392,969.7,-0.218,0.749,1.451,-0.0,-0.0
205.5,6.01,RollAlt,-30.513,951.587,-1.393,-0.183,-5.696,-0.0,1.0
206.0,6.01,PitchAlt,-12.492,935.986,0.075,0.614,1.551,-0.0,1.0
206.5,6.01,PitchAlt,-9.223,933.044,-0.46,0.829,-1.294,1.0,2.0
207.0,6.01,Alt,-2.767,989.075,-0.138,0.191,5.522,-4.0,-0.0
207.5,6.01,RollAlt,-24.156,928.979,-1.834,0.265,-4.2,1.0,6.0
208.0,6.01,PitchAlt,-16.221,975.921,-0.402,0.898,-0.73,-0.0,-0.0
208.5,6.01,PitchRollAlt,-5.266,945.321,-0.846,0.687,-2.234,1.0,1.0
209.0,6.01,Alt,2.288,1003.154,-0.073,-0.26,1.9,-2.0,3.0
209.5,6.01,Alt,-1.942,936.005,0.294,0.414,4.163,-0.0,1.0
210.0,6.01,PitchRollAlt,-11.713,941.241,-1.449,0.696,-4.11,1.0,3.0
210.4,6.01,Alt,-32.2,954.608,-0.045,0.524,1.897,-0.0,-0.0
210.9,6.01,RollAlt,-17.583,935.263,-1.997,0.494,-5.21,1.0,4.0
211.5,6.01,RollAlt,-25.173,931.115,-1.153,0.166,-5.171,1.0,2.0
211.9,6.01,PitchRollAlt,-5.108,954.143,-0.587,0.665,-0.922,-0.0,1.0
212.4,6.01,PitchAlt,-2.395,965.771,-0.375,0.612,-0.98,-0.0,1.0
212.9,6.01,PitchAlt,-10.76,1006.207,-0.293,-0.711,3.667,1.0,-0.0
213.4,6.01,Alt,-45.369,932.779,0.444,0.554,3.651,-0.0,1.0
213.9,6.01,PitchAlt,-5.29,929.78,-0.318,0.762,-0.853,-0.0,-0.0
214.4,6.01,Alt,2.167,941.153,0.158,0.472,2.386,1.0,1.0
214.9,6.01,PitchRollAlt,-4.751,933.853,0.682,0.991,3.084,-0.0,2.0
215.4,6.01,RollAlt,-18.621,966.405,-1.434,0.523,-4.147,1.0,2.0
215.9,6.01,Alt,-0.577,981.734,0.121,0.229,1.473,3.0,-0.0
216.4,6.01,Alt,-34.431,933.467,-0.141,-0.167,-7.501,-0.0,2.0
217.0,6.01,Alt,-6.412,930.82,0.173,-0.071,1.417,-0.0,-6.0
217.5,6.01,Alt,-1.547,988.973,-0.503,0.237,4.146,-0.0,-1.0
218.0,6.01,PitchAlt,-14.976,954.736,-0.538,0.719,-1.027,1.0,1.0
218.5,6.01,PitchRollAlt,-5.347,935.521,0.588,0.984,6.873,1.0,3.0
219.1,6.01,PitchRollAlt,-14.048,952.779,-1.407,0.95,-3.019,-0.0,2.0
219.6,6.01,PitchRollAlt,-12.948,944.08,-0.983,1.178,-5.485,1.0,3.0
220.1,6.01,PitchAlt,-9.819,949.284,-0.284,0.668,-0.809,-0.0,1.0
220.7,6.01,RollAlt,-44.16,962.593,-1.198,0.167,-2.652,1.0,1.0
221.2,6.01,PitchAlt,-4.614,971.883,-0.1,0.584,0.599,1.0,2.0
221.7,6.01,PitchAlt,-27.26,967.891,0.2,0.729,2.279,-1.0,1.0
222.2,6.01,PitchRollAlt,-16.281,952.354,-1.287,1.294,-1.521,-0.0,2.0
222.7,6.01,PitchRollAlt,-11.977,937.825,-2.258,1.364,-2.551,-0.0,3.0
223.2,6.01,Alt,0.332,983.962,0.041,0.267,2.494,1.0,1.0
223.7,6.01,PitchAlt,-2.436,960.171,-0.432,0.595,-0.491,1.0,1.0
224.3,6.01,RollAlt,-36.507,969.905,-0.922,0.115,-2.708,-1.0,1.0
224.8,6.01,Alt,1.808,977.951,-0.188,0.337,1.117,-0.0,-0.0
225.3,6.01,Alt,-17.774,940.839,0.107,0.434,4.431,-0.0,1.0
225.8,6.01,Alt,1.092,934.047,0.378,0.34,6.036,-0.0,1.0
226.4,6.01,Alt,3.822,937.583,0.045,0.483,0.749,1.0,1.0
226.9,6.01,PitchRollAlt,-14.335,939.944,-1.746,1.367,-1.771,1.0,3.0
227.4,6.01,PitchAlt,-18.585,941.969,0.032,0.99,-2.191,-0.0,3.0
227.9,6.01,PitchAlt,-3.435,931.816,0.275,0.587,7.716,-0.0,-1.0
228.3,6.01,PitchAlt,-5.096,934.202,-0.25,0.818,-1.429,1.0,2.0
228.8,6.01,Alt,2.587,935.262,0.324,0.231,3.792,-0.0,1.0
229.4,6.01,Alt,2.554,931.2,0.147,0.509,1.261,-0.0,2.0
229.9,6.01,PitchRollAlt,-26.663,958.086,-1.794,0.636,-3.244,1.0,1.0
230.5,6.01,RollAlt,-11.153,973.036,-0.807,0.542,-1.432,1.0,1.0
231.0,6.01,Alt,3.132,941.137,0.23,0.381,1.985,-0.0,1.0
231.5,6.01,PitchAlt,-4.245,941.593,-0.107,0.684,-0.923,-0.0,2.0
232.1,6.01,Alt,2.809,935.228,0.342,0.442,4.005,-0.0,1.0
232.6,6.01,RollAlt,-21.782,928.275,-1.605,0.113,-6.896,1.0,3.0
233.0,6.01,PitchAlt,-14.994,962.304,-0.143,0.592,0.81,1.0,1.0
233.5,6.01,PitchAlt,-6.553,959.911,-0.538,0.826,-1.235,1.0,1.0
234.0,6.01,Alt,-18.159,958.226,-0.408,0.276,0.227,-0.0,1.0
234.5,6.01,PitchAlt,-2.67,945.165,-0.105,0.585,0.922,-0.0,1.0
235.0,6.01,PitchRollAlt,-10.023,941.227,-0.742,0.844,-3.31,1.0,2.0
235.5,6.01,Alt,-7.676,948.986,-0.015,0.218,3.654,-0.0,6.0
236.0,6.01,Alt,-3.995,976.747,-0.125,-0.456,3.943,-0.0,-4.0
236.5,6.01,PitchAlt,-23.755,952.449,-6.347,2.288,-5.865,-0.0,2.0
237.0,6.01,PitchAlt,-6.531,939.176,-0.325,0.738,-1.018,1.0,-0.0
237.6,6.01,PitchRollAlt,-26.226,961.07,-1.489,0.861,-3.028,1.0,2.0
238.1,6.01,RollAlt,-17.697,933.715,-1.262,0.049,-6.726,-0.0,2.0
238.5,6.01,PitchAlt,-31.077,927.68,-0.022,0.808,-0.448,-0.0,1.0
239.0,6.01,RollAlt,-28.706,942.024,-1.703,0.081,-4.816,1.0,3.0
239.6,6.01,Alt,-5.176,967.138,0.066,0.304,2.831,-0.0,1.0
240.1,6.01,PitchAlt,-25.013,951.971,-0.158,0.948,0.283,-0.0,1.0
240.5,6.01,PitchAlt,-28.536,931.482,0.114,0.772,0.527,-0.0,1.0
241.0,6.01,PitchRollAlt,-24.034,969.013,-0.604,0.738,0.419,-0.0,-0.0
241.5,6.01,PitchAlt,-15.3,960.205,-0.339,0.868,2.873,-0.0,1.0
242.1,6.01,RollAlt,-25.434,941.172,-1.539,0.003,-7.851,-0.0,3.0
242.6,6.01,Alt,-2.571,933.638,0.257,-0.354,7.246,-0.0,3.0
243.0,6.01,RollAlt,-16.279,948.67,-1.944,0.515,-6.435,-0.0,3.0
243.5,6.01,Alt,1.167,946.117,0.183,0.35,2.575,1.0,-0.0
244.0,6.01,Alt,2.42,944.245,0.207,0.501,3.23,-0.0,1.0
244.6,6.01,RollAlt,-16.569,981.636,-0.677,0.351,-0.033,-0.0,-0.0
245.1,6.01,PitchRollAlt,-35.39,973.022,-0.875,0.829,1.084,-0.0,-0.0
245.6,6.01,PitchAlt,-4.351,955.286,-0.274,0.662,-1.43,1.0,1.0
246.1,6.01,PitchAlt,-11.857,942.581,0.106,0.593,1.754,2.0,-0.0
246.6,6.01,Alt,2.083,936.268,0.338,0.307,4.221,-0.0,1.0
247.1,6.01,RollAlt,-31.699,953.905,-2.225,0.513,-3.253,1.0,4.0
247.6,6.01,Alt,-0.761,952.363,-0.165,0.417,-2.215,-1.0,1.0
248.1,6.01,Alt,-6.683,954.964,-0.543,0.51,-1.892,1.0,1.0
248.6,6.01,RollAlt,-43.049,953.413,-1.795,0.189,-3.339,1.0,2.0
249.1,6.01,PitchRollAlt,-19.157,927.727,-1.8,0.629,-5.193,1.0,3.0
249.6,6.01,PitchRollAlt,-9.123,937.335,-0.584,0.774,-1.698,1.0,1.0
250.1,6.01,PitchAlt,-3.719,974.906,-0.201,0.618,-0.276,-0.0,1.0
250.6,6.01,PitchAlt,-13.165,950.833,-0.47,0.8,-0.594,1.0,1.0
251.1,6.01,PitchRollAlt,-9.429,935.288,-0.974,0.783,-4.387,1.0,2.0
251.5,6.01,PitchAlt,-18.057,941.745,-0.314,1.282,0.576,-0.0,2.0
252.1,6.01,RollAlt,-35.077,954.697,-1.78,-0.156,-2.81,1.0,3.0
252.5,6.01,Alt,-13.171,929.277,0.565,0.203,5.309,-0.0,2.0
253.0,6.01,Alt,-4.7,976.78,-0.285,0.009,-0.353,-0.0,-3.0
253.5,6.01,PitchRollAlt,-29.425,954.352,-1.058,1.234,-0.136,-0.0,2.0
254.0,6.01,PitchAlt,-0.48,941.445,0.513,0.671,4.19,-0.0,2.0
254.5,6.01,PitchRollAlt,-11.071,950.123,-0.648,0.654,-1.247,1.0,2.0
255.0,6.01,PitchAlt,-14.077,957.435,-0.103,0.894,0.533,-0.0,1.0
255.5,6.01,Alt,-20.586,944.511,0.074,0.566,1.843,-0.0,1.0
255.9,6.01,Alt,-12.414,972.12,-0.275,0.404,0.664,-0.0,-0.0
256.4,6.01,Alt,-12.71,962.549,-0.545,0.232,-2.402,1.0,1.0
257.0,6.01,Alt,-4.403,971.015,0.23,-0.088,-4.22,-0.0,1.0
257.4,6.01,PitchAlt,-5.3,933.034,-0.13,0.695,0.107,-0.0,1.0
257.9,6.01,PitchAlt,-19.144,960.151,0.234,0.657,1.431,-0.0,-0.0
258.4,6.01,Alt,-3.715,951.509,0.118,0.433,5.126,-0.0,1.0
258.9,6.01,PitchAlt,-4.835,966.653,-0.444,0.624,-0.614,-0.0,1.0
259.4,6.01,Alt,2.831,987.989,-0.096,0.087,2.284,-0.0,-0.0
260.0,6.01,Alt,1.88,979.349,-0.216,0.289,3.724,-0.0,1.0
260.5,6.01,Alt,3.496,980.072,-0.287,0.268,-3.229,-0.0,1.0
261.0,6.01,PitchRollAlt,-18.513,940.688,-0.708,0.875,-0.968,-0.0,1.0
261.5,6.01,PitchAlt,1.88,938.404,0.374,0.618,3.781,-0.0,2.0
262.1,6.01,PitchAlt,-9.424,952.781,-0.232,0.709,-0.024,-0.0,1.0
262.6,6.01,Alt,-3.354,973.602,-0.008,-0.038,1.251,1.0,4.0
263.0,6.01,PitchRollAlt,-12.671,937.829,-1.387,0.699,-6.193,1.0,3.0
263.5,6.01,PitchAlt,-1.105,933.772,-0.136,0.636,-0.139,-0.0,1.0
264.0,6.01,PitchRollAlt,-23.912,952.833,-1.467,0.962,-2.574,-0.0,2.0
264.6,6.01,PitchAlt,-24.902,956.598,-0.557,0.887,0.043,-0.0,1.0
265.0,6.01,RollAlt,-21.787,931.523,-1.169,-0.056,-7.572,1.0,1.0
265.5,6.01,Alt,2.756,936.847,0.186,0.424,1.806,-0.0,1.0
266.0,6.01,PitchRollAlt,-34.025,967.319,-0.915,0.807,-0.025,-0.0,1.0
266.5,6.01,PitchAlt,-2.263,958.964,-0.331,0.606,-1.914,1.0,1.0
267.1,6.01,PitchRollAlt,-13.41,932.939,-0.937,0.871,-3.94,1.0,1.0
267.6,6.01,PitchRollAlt,-29.263,940.074,-2.616,1.031,-2.381,1.0,4.0
268.1,6.01,PitchAlt,-8.63,969.119,0.06,0.646,0.448,-0.0,1.0
268.7,6.01,RollAlt,-17.785,930.478,-1.363,0.112,-6.272,1.0,2.0
269.2,6.01,RollAlt,-29.607,954.845,-1.928,-0.281,-6.125,1.0,4.0
269.8,6.01,Alt,0.769,968.384,-0.347,0.521,-0.31,1.0,-0.0
270.3,6.01,RollAlt,-10.034,933.909,-0.867,0.481,-4.877,1.0,3.0
270.8,6.01,PitchRollAlt,-30.871,945.543,-1.434,1.483,1.468,-0.0,3.0
271.3,6.01,PitchAlt,-26.115,959.938,-0.083,0.852,3.464,-0.0,-0.0
271.9,6.01,Alt,-0.88,970.439,-0.095,-0.137,-2.183,-3.0,5.0
272.4,6.01,Alt,2.784,950.134,-0.178,0.549,2.76,-0.0,1.0
273.0,6.01,Alt,2.302,963.642,0.002,0.548,1.276,-0.0,-0.0
273.5,6.01,PitchRollAlt,-2.719,950.276,-0.612,0.678,-1.762,1.0,1.0
274.0,6.01,PitchAlt,-3.919,942.324,-0.264,0.707,-0.71,1.0,1.0
274.5,6.01,Alt,-31.861,932.985,0.338,0.534,0.583,-0.0,1.0
275.1,6.01,RollAlt,-13.353,970.783,-0.799,0.466,-2.184,2.0,-0.0
275.5,6.01,PitchAlt,-15.723,938.642,-0.432,0.829,-0.917,1.0,-0.0
276.0,6.01,PitchRollAlt,-29.259,977.572,-0.611,0.952,0.645,-0.0,-0.0
276.5,6.01,RollAlt,-18.231,939.773,-1.335,0.089,-7.31,1.0,2.0
277.0,6.01,PitchAlt,-26.898,962.507,-0.553,1.195,1.252,-1.0,1.0
277.5,6.01,PitchAlt,-35.786,964.415,-0.561,0.8,1.482,-0.0,-0.0
278.1,6.01,PitchRollAlt,-20.848,962.017,-0.595,0.601,-0.482,-0.0,1.0
278.6,6.01,PitchRollAlt,-34.298,933.338,-1.697,1.05,-3.178,1.0,2.0
279.1,6.01,PitchRollAlt,-13.554,952.399,-0.803,1.179,-0.576,-0.0,2.0
279.6,6.01,Alt,-17.044,935.566,0.214,0.319,3.88,-0.0,1.0
280.2,6.01,PitchRollAlt,-3.288,947.798,-0.671,0.695,-2.782,-0.0,1.0
280.8,6.01,PitchAlt,-9.958,939.099,-0.03,0.611,0.272,-0.0,1.0
281.3,6.01,PitchRollAlt,-9.91,943.664,0.769,0.663,6.669,-0.0,1.0
281.8,6.01,Alt,-2.129,928.098,0.374,0.342,6.198,-0.0,1.0
282.4,6.01,PitchAlt,-24.189,961.23,-0.32,0.992,0.053,-0.0,1.0
282.9,6.01,RollAlt,-18.108,943.198,-1.811,0.01,-6.204,1.0,4.0
283.4,6.01,Alt,4.366,934.922,-0.033,0.53,0.404,-0.0,1.0
283.9,6.01,Alt,3.567,930.998,0.244,0.347,4.363,-0.0,1.0
284.3,6.01,RollAlt,-16.496,989.334,-0.69,0.209,0.087,-0.0,-0.0
284.8,6.01,PitchRollAlt,-19.356,941.246,-0.902,0.792,-3.804,1.0,2.0
285.4,6.01,PitchAlt,-17.909,992.001,0.208,-0.625,-7.354,-0.0,1.0
285.9,6.01,RollAlt,-26.942,930.034,-1.632,0.353,-6.302,1.0,4.0
286.4,6.01,Alt,-0.352,991.236,-0.16,-0.201,2.202,-2.0,1.0
286.9,6.01,Alt,2.648,937.735,0.093,0.5,1.363,-0.0,1.0
287.5,6.01,Alt,1.295,934.285,0.259,0.426,2.615,-0.0,1.0
288.0,6.01,PitchAlt,-20.115,941.842,0.063,0.895,5.479,-0.0,1.0
288.6,6.01,PitchAlt,-14.003,934.927,0.113,0.625,2.05,-0.0,1.0
289.1,6.01,PitchAlt,-2.554,941.452,-0.234,0.767,0.549,-0.0,-1.0
289.6,6.01,RollAlt,-19.193,929.41,-1.242,0.098,-7.374,1.0,3.0
290.1,6.01,Alt,3.314,975.753,-0.132,0.462,0.054,-0.0,1.0
290.7,6.01,PitchAlt,-24.422,952.417,-0.021,0.868,1.652,-1.0,1.0
291.1,6.01,PitchAlt,-5.854,931.975,-0.258,0.759,-0.57,1.0,1.0
291.6,6.01,PitchAlt,-16.199,947.631,-0.28,0.746,0.472,1.0,1.0
292.1,6.01,Alt,0.636,991.027,-0.166,-0.278,-3.95,-0.0,-0.0
292.6,6.01,PitchRollAlt,-28.422,958.676,-0.783,0.962,-0.157,-0.0,1.0
293.1,6.01,RollAlt,-27.47,980.4,-0.746,-0.043,-2.632,1.0,1.0
293.6,6.01,Alt,-2.856,943.663,0.079,0.5,4.103,-0.0,1.0
294.1,6.01,PitchRollAlt,-39.023,960.514,-1.155,0.73,-1.158,1.0,2.0
294.6,6.01,RollAlt,-12.441,931.233,0.657,0.17,9.747,-1.0,2.0
295.1,6.01,Alt,-3.695,934.34,0.26,0.267,3.097,-0.0,1.0
295.7,6.01,PitchRollAlt,-19.552,953.236,-1.359,0.866,-2.671,1.0,1.0
296.2,6.01,PitchRollAlt,-25.22,951.346,-1.923,1.235,-4.78,1.0,2.0
296.7,6.01,Alt,1.994,938.59,0.217,0.405,2.878,-0.0,1.0
297.2,6.01,Alt,0.552,968.592,-0.115,0.276,-0.035,-0.0,1.0
297.8,6.01,Alt,3.22,935.537,0.127,0.492,2.428,-0.0,1.0
298.3,6.01,PitchAlt,-34.025,971.428,-0.534,0.699,1.532,-1.0,1.0
298.8,6.01,PitchAlt,-1.213,955.136,-0.469,0.618,-0.329,1.0,2.0
299.3,6.01,PitchAlt,-28.954,953.366,-0.484,1.163,-0.012,1.0,1.0
299.8,6.01,PitchAlt,-19.392,951.275,-0.505,1.141,0.035,-0.0,-0.0
300.3,6.01,PitchAlt,2.599,931.483,0.077,0.579,1.016,-0.0,-0.0
300.9,6.01,PitchRollAlt,-18.688,941.698,-0.899,0.796,-2.427,1.0,2.0
301.4,6.01,RollAlt,-10.816,959.532,-0.771,0.462,-2.124,1.0,1.0
301.8,6.01,Alt,-15.824,935.456,0.343,0.534,7.66,-0.0,3.0
302.3,6.01,PitchRollAlt,-14.297,929.157,-0.718,0.778,-2.799,1.0,2.0
302.8,6.01,Alt,-1.623,980.739,-0.473,0.081,-1.829,1.0,4.0
303.4,6.01,Alt,1.064,984.452,-0.129,-0.43,4.541,1.0,-1.0
303.8,6.01,Alt,0.393,946.979,-0.066,0.546,0.935,-0.0,-0.0
304.3,6.01,Alt,1.745,967.594,-0.161,0.496,-0.105,-0.0,-0.0
304.8,6.01,PitchAlt,-31.343,961.278,-0.508,0.708,0.073,-0.0,1.0
305.3,6.01,RollAlt,-19.985,930.912,-1.248,0.537,-5.766,1.0,2.0
305.8,6.01,PitchAlt,-3.002,947.54,-0.104,0.625,-2.431,1.0,1.0
306.3,6.01,Alt,1.321,936.608,0.365,0.251,4.96,-0.0,1.0
306.8,6.01,Alt,-31.768,925.43,0.495,0.357,2.671,-0.0,1.0
307.3,6.01,Alt,1.923,956.296,-0.308,0.426,-1.917,1.0,1.0
307.8,6.01,PitchAlt,-5.714,952.722,-0.369,0.632,-1.389,-0.0,1.0
308.3,6.01,Alt,3.768,961.469,-0.246,0.282,-1.347,1.0,1.0
308.8,6.01,PitchRollAlt,-41.974,959.2,-2.739,0.853,-2.354,-0.0,1.0
309.3,6.01,PitchAlt,-15.62,943.145,-0.278,0.756,0.551,-0.0,1.0
309.8,6.01,PitchRollAlt,-35.206,959.816,-1.418,0.785,-1.6,1.0,2.0
310.3,6.01,Alt,1.694,938.717,0.244,0.449,2.507,-0.0,1.0
310.8,6.01,Alt,-13.708,932.128,0.501,0.171,8.388,-0.0,2.0
311.3,6.01,Alt,1.894,952.955,-0.537,0.566,-2.368,1.0,1.0
311.8,6.01,PitchAlt,-26.795,957.311,0.19,0.716,2.653,-0.0,-0.0
312.2,6.01,Alt,2.298,951.088,0.249,0.372,2.606,-0.0,3.0
312.8,6.01,PitchAlt,-31.189,955.788,0.14,0.995,1.67,-0.0,-0.0
313.3,6.01,Alt,-3.916,990.651,0.299,-0.515,-5.706,-0.0,4.0
313.8,6.01,PitchRollAlt,-19.08,957.317,-1.48,1.177,-1.694,-0.0,2.0
314.3,6.01,Alt,5.552,1007.981,-0.228,-0.044,-1.491,1.0,-0.0
314.8,6.01,RollAlt,-29.709,933.415,-1.023,0.022,-7.316,-0.0,2.0
315.3,6.01,PitchAlt,-48.196,950.282,-0.382,0.971,2.124,1.0,1.0
315.8,6.01,Alt,4.743,928.024,0.104,0.541,0.374,-0.0,1.0
316.3,6.01,RollAlt,-27.365,970.629,-1.06,0.555,-1.737,1.0,1.0
316.8,6.01,PitchAlt,-1.15,954.316,-0.381,0.599,-1.423,1.0,2.0
317.2,6.01,PitchAlt,-4.913,940.948,-0.434,0.7,-2.481,1.0,1.0
317.8,6.01,PitchRollAlt,-3.371,941.642,-0.579,0.671,-2.553,1.0,1.0
318.3,6.01,Alt,2.152,945.211,0.268,0.354,1.998,1.0,1.0
318.7,6.01,Alt,1.248,997.585,-0.204,-0.044,-1.548,1.0,1.0
319.2,6.01,Alt,-3.589,938.747,0.314,0.489,4.682,-0.0,2.0
319.7,6.01,RollAlt,-11.297,935.704,0.797,0.292,7.194,-0.0,2.0
320.2,6.01,Alt,1.807,956.249,-0.181,0.29,-2.321,2.0,1.0
320.7,6.01,PitchAlt,-16.354,942.774,-0.438,0.752,-4.19,1.0,1.0
321.2,6.01,Alt,1.46,1002.931,0.479,-0.147,-4.877,-0.0,-0.0
321.7,6.01,PitchAlt,-17.044,947.28,0.527,0.879,2.553,-0.0,1.0
322.1,6.01,Alt,-4.048,929.311,0.377,0.265,1.852,-0.0,-0.0
322.7,6.01,Alt,2.236,935.211,0.091,0.434,0.835,-0.0,1.0
323.2,6.01,PitchRollAlt,-28.994,957.3,-0.756,0.866,-0.871,1.0,2.0
323.6,6.01,PitchAlt,-9.196,943.001,-0.185,0.656,-0.643,-0.0,1.0
324.1,6.01,Alt,-5.146,943.268,0.136,0.373,2.53,1.0,4.0
324.6,6.01,RollAlt,-11.705,1002.718,0.616,0.038,-4.2,-0.0,1.0
325.2,6.01,Alt,-24.792,970.818,-0.291,0.566,1.459,-0.0,-0.0
325.6,6.01,Alt,-9.408,938.856,0.42,0.204,2.671,-1.0,2.0
326.1,6.01,PitchRollAlt,-11.444,955.871,-1.245,1.018,-1.702,1.0,3.0
326.6,6.01,Alt,1.608,948.533,-0.147,0.546,0.068,-0.0,1.0
327.1,6.01,PitchAlt,-19.367,935.086,0.177,0.591,1.119,-0.0,-0.0
327.6,6.01,RollAlt,-22.991,948.726,-1.889,0.42,-5.014,1.0,3.0
328.2,6.01,PitchAlt,-17.703,941.539,0.498,0.741,4.755,-0.0,1.0
328.7,6.01,Alt,3.843,951.423,-0.012,0.505,0.166,-0.0,-0.0
329.2,6.01,Alt,2.147,952.459,-0.157,0.549,-0.146,-0.0,1.0
329.8,6.01,Alt,-4.325,937.169,0.508,0.541,5.701,-0.0,2.0
330.4,6.01,Alt,5.904,934.907,0.035,0.529,0.51,1.0,1.0
330.8,6.01,RollAlt,-1.504,956.332,-0.598,0.518,-1.973,-0.0,1.0
331.3,6.01,Alt,2.913,930.851,0.404,0.191,3.342,-0.0,-0.0
331.8,6.01,Alt,2.425,943.324,0.306,0.289,4.986,-0.0,1.0
332.3,6.01,PitchAlt,-25.661,941.496,0.454,0.774,1.934,-0.0,1.0
332.8,6.01,PitchRollAlt,-15.859,942.429,-1.743,0.966,-5.183,1.0,4.0
333.3,6.01,Alt,3.288,933.449,0.312,0.346,3.53,-0.0,1.0
333.8,6.01,PitchRollAlt,-17.89,947.721,-2.314,1.363,-1.865,-0.0,4.0
334.3,6.01,PitchRollAlt,-55.117,930.982,-2.515,0.774,-1.971,1.0,4.0
334.8,6.01,Alt,4.079,938.503,0.125,0.536,1.147,-0.0,1.0
335.3,6.01,Alt,-4.805,933.749,0.228,0.197,3.445,-0.0,3.0
335.8,6.01,PitchAlt,-16.37,938.538,0.043,0.844,1.737,1.0,2.0
336.3,6.01,PitchRollAlt,-17.521,970.905,-1.165,0.601,-2.259,1.0,1.0
336.9,6.01,Alt,4.374,932.588,0.234,0.47,3.012,1.0,1.0
337.4,6.01,PitchRollAlt,-31.714,941.567,-0.865,0.768,-5.142,1.0,3.0
338.0,6.01,PitchAlt,-7.08,942.823,-0.008,0.876,0.416,-0.0,2.0
338.5,6.01,Alt,3.98,1009.573,-0.569,-0.016,5.537,1.0,-0.0
339.0,6.01,PitchRollAlt,-14.125,932.964,-1.114,0.96,-4.653,1.0,2.0
339.5,6.01,Alt,-17.238,945.634,0.131,0.429,2.106,-0.0,-0.0
340.1,6.01,PitchAlt,-16.721,944.402,0.499,0.639,4.695,-0.0,1.0
340.6,6.01,Alt,3.389,936.768,-0.082,0.556,-0.018,-0.0,1.0
341.2,6.01,PitchAlt,-16.477,955.402,-0.113,0.894,1.307,-0.0,1.0
341.7,6.01,Alt,-5.496,944.625,0.308,0.293,4.059,-0.0,2.0
342.2,6.01,Alt,1.002,1003.379,0.079,-0.097,1.14,1.0,-0.0
342.7,6.01,PitchAlt,-29.36,935.878,0.24,0.747,1.331,-0.0,-0.0
343.3,6.01,Alt,3.864,948.256,-0.138,0.553,0.812,-0.0,1.0
343.8,6.01,Alt,-9.64,988.915,-0.574,0.138,-1.485,1.0,-0.0
344.3,6.01,PitchAlt,-0.883,949.1,-0.334,0.614,-2.07,1.0,2.0
344.8,6.01,PitchRollAlt,-24.681,975.036,-1.427,1.113,-1.484,1.0,-0.0
345.3,6.01,PitchAlt,1.019,945.698,0.037,0.601,0.39,-0.0,2.0
345.8,6.01,Alt,2.416,934.114,0.241,0.475,2.322,-0.0,-0.0
346.3,6.01,Alt,-4.676,940.783,-0.39,0.529,0.729,3.0,1.0
346.7,6.01,PitchAlt,-23.359,945.411,9.251,1.305,10.579,-0.0,3.0
347.2,6.01,PitchRollAlt,-16.197,944.706,-2.98,1.042,-2.456,-0.0,4.0
347.7,6.01,PitchAlt,-6.625,951.545,-0.291,0.8,-1.858,-0.0,1.0
348.2,6.01,Alt,1.572,951.521,-0.016,0.449,1.659,-0.0,1.0
348.7,6.01,RollAlt,-21.773,930.3,-0.921,-0.229,-8.934,1.0,2.0
349.2,6.01,Alt,2.149,977.75,-0.392,0.55,-0.279,-0.0,1.0
349.7,6.01,PitchRollAlt,-6.713,939.521,-0.787,0.748,-3.412,1.0,2.0
350.2,6.01,Alt,-2.634,933.957,0.371,0.364,5.795,-0.0,1.0
350.7,6.01,RollAlt,-30.656,948.905,-2.423,0.306,-3.625,1.0,5.0
351.2,6.01,PitchAlt,-1.449,931.938,-0.01,0.619,0.767,1.0,1.0
351.8,6.01,PitchRollAlt,-17.383,951.963,-1.873,1.114,-1.968,-0.0,3.0
352.3,6.01,PitchAlt,-14.234,949.493,0.194,0.994,2.311,-0.0,-0.0
352.8,6.01,PitchAlt,-1.244,937.966,0.333,0.577,5.451,-0.0,1.0
353.4,6.01,Alt,-24.326,961.179,-0.317,0.351,4.244,2.0,-2.0
353.9,6.01,RollAlt,-21.214,947.587,-2.0,-0.391,-6.122,1.0,5.0
354.4,6.01,PitchAlt,-8.13,931.921,-0.209,0.758,-0.717,1.0,2.0
354.9,6.01,Alt,-28.947,972.286,0.092,0.504,1.304,-0.0,-0.0
355.4,6.01,PitchRollAlt,-29.972,956.725,-2.475,-0.681,-2.877,-0.0,3.0
356.0,6.01,RollAlt,-18.726,988.097,-0.699,0.306,-1.77,-0.0,1.0
356.5,6.01,PitchRollAlt,-27.788,949.024,-3.157,0.595,-2.319,-0.0,3.0
357.0,6.01,PitchRollAlt,-25.382,956.213,-2.746,0.583,-2.45,-0.0,4.0
357.4,6.01,Alt,2.298,928.328,0.37,0.252,3.431,-0.0,1.0
357.9,6.01,PitchAlt,-1.898,934.568,-0.42,0.745,-3.241,1.0,1.0
358.5,6.01,PitchRollAlt,-22.453,973.997,-0.879,0.76,-0.829,1.0,1.0
359.0,6.01,PitchRollAlt,-10.767,934.036,-0.832,0.913,-2.76,1.0,2.0
359.5,6.01,Alt,-21.484,954.004,0.213,0.373,2.821,-0.0,-0.0
360.0,6.01,PitchRollAlt,-13.118,933.86,-1.151,0.724,-1.377,1.0,3.0
360.6,6.01,Alt,-1.136,961.58,-0.406,0.419,-2.627,-0.0,1.0
361.1,6.01,RollAlt,-15.562,929.564,-1.409,0.303,-6.587,1.0,3.0
361.6,6.01,PitchAlt,-16.898,955.71,-0.32,0.577,0.209,-0.0,-0.0
362.1,6.01,RollAlt,0.155,984.805,-0.606,0.144,-3.413,-0.0,1.0
362.6,6.01,Alt,1.273,964.433,-0.108,0.352,-0.563,1.0,-0.0
363.1,6.01,RollAlt,-24.708,956.782,-1.636,-0.117,-5.952,1.0,2.0
363.6,6.01,Alt,-8.043,935.961,0.376,0.204,5.36,-0.0,1.0
364.1,6.01,Alt,1.984,1003.642,-0.404,-0.061,4.782,-0.0,-0.0
364.6,6.01,RollAlt,-39.609,953.067,-2.27,0.442,-1.924,1.0,2.0
365.1,6.01,Alt,2.6,975.767,-0.418,0.553,-1.028,-0.0,1.0
365.6,6.01,Alt,4.418,947.568,0.339,0.357,3.675,-0.0,1.0
366.1,6.01,PitchAlt,-6.21,943.196,-0.24,0.666,-0.835,-0.0,1.0
366.6,6.01,Alt,-0.316,935.656,0.137,0.202,4.643,-0.0,-2.0
367.1,6.01,Alt,2.791,945.83,0.213,0.222,2.605,1.0,1.0
367.6,6.01,PitchRollAlt,-19.726,957.163,-1.116,1.112,-1.863,-0.0,2.0
368.1,6.01,Alt,1.342,947.837,0.165,0.461,1.399,1.0,1.0
368.6,6.01,Alt,-5.375,930.431,0.522,0.353,6.554,-0.0,1.0
369.1,6.01,PitchAlt,-16.896,949.825,-0.307,0.789,-3.306,-0.0,2.0
369.6,6.01,Alt,-0.97,947.847,0.026,0.202,2.613,-0.0,-4.0
370.0,6.01,Alt,2.363,932.357,0.427,0.327,5.934,-0.0,1.0
370.5,6.01,PitchAlt,1.752,937.798,-0.12,0.615,-0.297,1.0,1.0
371.1,6.01,PitchRollAlt,-9.173,976.726,-1.048,0.649,-4.088,1.0,1.0
371.6,6.01,PitchAlt,-2.946,950.725,-0.297,0.792,-0.401,-0.0,2.0
372.1,6.01,Alt,3.103,955.549,0.183,0.473,2.713,-0.0,1.0
372.6,6.01,PitchAlt,2.232,948.328,-0.24,0.586,-2.222,1.0,1.0
373.1,6.01,PitchAlt,-18.892,969.914,-0.041,0.651,0.271,-0.0,1.0
373.6,6.01,PitchAlt,-27.306,936.365,-0.51,1.325,-0.139,1.0,2.0
374.1,6.01,Alt,3.286,956.354,0.015,0.458,2.31,1.0,-0.0
374.6,6.01,Alt,1.619,966.25,-0.309,0.214,-3.781,1.0,1.0
375.1,6.01,PitchRollAlt,-17.893,959.993,-1.005,0.963,-2.287,-0.0,2.0
375.6,6.01,PitchAlt,-7.475,960.548,-0.209,0.599,4.776,-0.0,1.0
376.2,6.01,PitchAlt,-12.692,961.522,0.216,0.663,1.603,-1.0,1.0
376.7,6.01,Alt,-7.388,940.565,0.423,0.234,4.41,-0.0,2.0
377.2,6.01,Alt,2.235,971.027,-0.042,0.077,2.181,1.0,-0.0
377.6,6.01,Alt,0.403,1010.107,0.525,-0.29,-3.571,1.0,-1.0
378.1,6.01,PitchAlt,-2.098,942.257,-0.236,0.593,-4.672,1.0,2.0
378.7,6.01,Alt,4.106,943.111,0.001,0.481,0.837,1.0,1.0
379.1,6.01,Alt,4.241,937.084,0.06,0.504,0.576,-0.0,-0.0
379.6,6.01,Alt,-3.745,965.482,-0.152,0.26,3.097,-0.0,1.0
380.1,6.01,PitchRollAlt,-7.463,943.709,-0.738,1.006,-4.291,1.0,2.0
380.6,6.01,PitchAlt,-19.755,964.718,-0.29,0.968,0.308,1.0,1.0
381.1,6.01,Alt,3.79,995.432,-0.302,0.049,-1.171,1.0,-0.0
381.6,6.01,PitchAlt,-27.383,946.397,-0.47,1.009,0.464,-0.0,2.0
382.1,6.01,Alt,-8.768,928.175,0.27,0.323,5.436,-0.0,2.0
382.5,6.01,Alt,-23.923,957.247,0.046,0.554,2.231,-0.0,1.0
383.0,6.01,Alt,-21.033,953.87,0.142,0.565,1.417,-0.0,-0.0
383.6,6.01,PitchAlt,-24.531,959.684,0.223,1.004,0.513,-0.0,-0.0
384.0,6.01,Alt,-0.323,937.646,0.317,0.386,2.294,-0.0,1.0
384.5,6.01,Alt,2.663,959.778,-0.392,0.453,-0.434,1.0,1.0
385.0,6.01,PitchAlt,-4.186,940.622,-0.328,0.638,-1.156,1.0,1.0
385.5,6.01,PitchAlt,-11.508,949.309,-0.266,0.782,-3.752,1.0,-1.0
386.0,6.01,Alt,0.189,938.062,0.426,0.216,4.049,-0.0,1.0
386.5,6.01,PitchRollAlt,-34.892,955.612,-1.698,0.788,-1.994,1.0,2.0
387.0,6.01,Alt,2.913,936.385,0.221,0.373,1.535,-0.0,1.0
387.5,6.01,Alt,-6.315,994.696,-0.294,0.064,1.085,-0.0,-0.0
387.9,6.01,PitchAlt,-7.214,966.845,-0.181,0.641,-0.097,-0.0,1.0
388.5,6.01,PitchAlt,-26.047,952.47,0.365,1.169,2.045,-0.0,-0.0
389.0,6.01,PitchRollAlt,-11.828,947.746,-2.199,1.367,-2.346,-0.0,3.0
389.5,6.01,Alt,-5.725,938.11,0.505,0.322,5.833,-0.0,1.0
389.9,6.01,Alt,-2.519,954.001,0.062,0.551,0.768,-0.0,-0.0
390.4,6.01,Alt,0.296,965.601,-0.026,0.14,-0.921,-0.0,2.0
391.0,6.01,RollAlt,-16.543,966.264,-0.641,0.415,-2.38,-0.0,-0.0
391.5,6.01,Alt,3.089,953.793,0.039,0.295,1.439,1.0,1.0
392.0,6.01,PitchAlt,-12.258,953.17,-0.082,0.64,1.107,-0.0,-0.0
392.6,6.01,Alt,3.161,961.609,0.22,0.116,3.009,-0.0,-0.0
393.1,6.01,PitchAlt,-47.543,938.645,0.539,0.887,3.391,-0.0,1.0
393.7,6.01,PitchAlt,1.56,955.534,-0.143,0.599,0.071,-0.0,1.0
394.2,6.01,PitchAlt,-2.821,939.306,-0.268,0.843,-0.797,-0.0,1.0
394.7,6.01,PitchAlt,-11.145,959.346,-0.378,0.901,-2.14,1.0,1.0
395.2,6.01,PitchAlt,-34.264,944.81,-0.477,0.842,0.151,1.0,1.0
395.8,6.01,PitchRollAlt,-33.868,960.704,-0.591,0.807,0.643,-0.0,-0.0
396.3,6.01,PitchRollAlt,-8.354,936.768,-1.133,0.582,-6.103,1.0,2.0
396.8,6.01,PitchAlt,-1.609,939.732,-0.462,0.692,-2.157,1.0,1.0
397.3,6.01,Alt,-12.03,932.327,0.431,0.416,4.355,-0.0,3.0
397.8,6.01,Alt,0.111,945.661,0.263,0.312,4.812,-0.0,1.0
398.3,6.01,Alt,-5.699,951.959,0.301,-0.092,2.278,-0.0,-3.0
398.8,6.01,PitchAlt,-25.682,968.979,-0.218,0.871,2.494,-1.0,-0.0
399.3,6.01,PitchRollAlt,-9.811,930.279,-0.653,0.643,-3.504,1.0,3.0
399.8,6.01,PitchAlt,-3.75,932.364,-0.066,0.827,0.206,-0.0,1.0
400.3,6.01,PitchRollAlt,-11.486,951.361,-0.599,0.801,-3.823,-0.0,1.0
400.7,6.01,PitchRollAlt,-25.3,931.165,-0.608,1.016,-2.927,1.0,1.0
401.3,6.01,Alt,-16.167,939.002,-0.182,-0.405,-2.606,-2.0,2.0
401.8,6.01,Alt,-5.332,938.948,0.408,0.25,4.195,-0.0,1.0
402.3,6.01,Alt,-7.713,939.914,0.211,0.391,4.766,-0.0,1.0
402.9,6.01,Alt,2.728,938.726,0.016,0.563,0.659,-0.0,-0.0
403.4,6.01,Alt,-5.268,955.557,-0.077,0.463,1.255,-0.0,-0.0
404.0,6.01,RollAlt,-23.753,955.238,-2.213,0.446,-4.839,1.0,3.0
404.5,6.01,PitchRollAlt,-37.426,943.425,-1.601,0.882,-4.045,-0.0,2.0
405.0,6.01,RollAlt,-27.845,940.5,-2.158,0.293,-6.691,1.0,3.0
405.5,6.01,PitchAlt,-4.518,936.439,-0.176,0.681,-3.813,3.0,2.0
406.1,6.01,Alt,3.902,931.299,0.035,0.574,0.729,-0.0,1.0
406.6,6.01,Alt,1.597,972.416,0.125,0.193,1.471,1.0,-0.0
407.1,6.01,Alt,-0.142,944.348,-0.05,0.499,-0.152,-0.0,1.0
407.6,6.01,PitchAlt,-20.596,943.34,-0.225,0.603,1.984,-1.0,1.0
408.1,6.01,Alt,1.586,999.874,0.458,-0.116,-0.061,5.0,-0.0
408.6,6.01,PitchRollAlt,-19.646,956.015,-1.673,1.024,-2.888,1.0,3.0
409.1,6.01,PitchRollAlt,-17.233,930.092,-1.455,0.652,-5.534,1.0,2.0
409.6,6.01,Alt,-11.068,957.762,-0.494,0.449,-0.813,1.0,1.0
410.1,6.01,Alt,-0.943,959.324,0.085,0.459,-0.364,-0.0,1.0
410.6,6.01,PitchAlt,-14.837,952.782,-0.359,0.697,-0.491,1.0,1.0
411.2,6.01,PitchRollAlt,-18.864,936.715,-1.518,0.675,-6.154,1.0,3.0
411.7,6.01,PitchRollAlt,-11.784,944.749,-2.202,0.976,-4.265,1.0,4.0
412.2,6.01,Alt,-11.809,955.389,0.106,0.397,2.338,-0.0,1.0
412.8,6.01,Alt,-16.079,966.624,-0.165,-0.214,-1.772,1.0,1.0
413.3,6.01,Alt,-18.468,974.403,-0.13,0.27,0.773,-0.0,-0.0
413.8,6.01,PitchAlt,-18.272,946.204,-0.34,0.673,-0.34,1.0,1.0
414.4,6.01,PitchAlt,-28.449,958.244,0.005,0.672,1.484,-0.0,-0.0
414.9,6.01,PitchRollAlt,-34.431,961.479,-1.893,0.625,-2.421,1.0,2.0
415.3,6.01,RollAlt,-19.924,934.203,-1.45,0.023,-9.557,1.0,4.0
415.8,6.01,PitchAlt,-22.397,960.403,-0.459,1.098,0.309,-1.0,1.0
416.3,6.01,Alt,2.99,945.879,0.29,0.231,3.611,-0.0,1.0
416.8,6.01,Alt,2.521,928.1,0.366,0.288,2.984,-0.0,1.0
417.3,6.01,RollAlt,-48.022,926.821,-1.703,0.146,-6.211,1.0,4.0
417.8,6.01,PitchRollAlt,-11.535,941.05,-0.833,0.708,-2.211,1.0,2.0
418.3,6.01,PitchAlt,-22.889,954.806,0.173,0.777,2.992,-0.0,-0.0
418.8,6.01,PitchRollAlt,-28.494,954.202,-2.703,-0.86,-6.981,-0.0,2.0
419.3,6.01,Alt,2.972,938.712,-0.104,0.568,0.138,-0.0,1.0
419.8,6.01,PitchAlt,-5.496,949.938,0.114,0.942,0.622,-0.0,4.0
420.3,6.01,PitchAlt,-18.914,966.422,-0.266,0.962,1.26,-0.0,-0.0
420.7,6.01,PitchRollAlt,-15.153,956.631,-1.921,0.676,-5.39,1.0,3.0
421.2,6.01,PitchAlt,-20.154,963.869,-0.273,0.697,0.138,-0.0,1.0
421.8,6.01,PitchAlt,-17.101,952.038,-0.555,0.774,-0.395,-0.0,1.0
422.2,6.01,PitchRollAlt,-19.183,928.235,-1.52,0.667,-3.611,1.0,2.0
422.7,6.01,PitchAlt,-13.435,938.659,0.232,1.214,1.912,-0.0,2.0
423.2,6.01,PitchAlt,-16.205,942.809,-0.231,1.064,3.5,-0.0,3.0
423.7,6.01,Alt,-20.813,932.483,0.365,0.521,7.321,1.0,1.0
424.3,6.01,PitchAlt,-31.541,943.528,0.084,0.829,2.586,-0.0,-0.0
424.8,6.01,PitchAlt,-23.886,956.974,-0.136,0.635,1.267,3.0,-0.0
425.3,6.01,PitchAlt,-1.188,934.546,-0.046,0.656,0.497,-0.0,1.0
425.8,6.01,PitchAlt,-6.574,941.441,-0.26,0.728,-0.099,-0.0,1.0
426.4,6.01,PitchAlt,-23.788,931.42,0.097,0.837,1.491,1.0,-0.0
426.9,6.01,RollAlt,-50.206,940.126,-2.454,0.485,-4.246,1.0,5.0
427.4,6.01,RollAlt,1.206,957.878,-0.637,0.563,-1.049,1.0,1.0
427.9,6.01,PitchAlt,0.357,979.096,-0.469,0.614,-1.436,1.0,1.0
428.4,6.01,RollAlt,-15.74,929.717,0.646,0.095,3.755,-0.0,2.0
428.9,6.01,Alt,3.174,982.079,-0.09,0.502,0.854,-0.0,-0.0
429.4,6.01,PitchRollAlt,-32.132,970.835,-0.715,0.898,0.79,-0.0,-0.0
429.9,6.01,Alt,3.625,935.636,0.235,0.441,2.13,-0.0,-0.0
430.4,6.01,Alt,1.016,969.804,0.029,-0.016,-3.67,-0.0,3.0
430.9,6.01,Alt,-3.109,946.281,0.066,0.346,1.725,5.0,-0.0
431.4,6.01,RollAlt,-15.069,934.312,-1.254,0.333,-6.499,1.0,3.0
432.0,6.01,PitchAlt,-5.68,950.052,-0.036,0.845,0.357,-0.0,2.0
432.5,6.01,Alt,-15.915,926.602,0.278,0.316,3.419,-0.0,3.0
433.0,6.01,Alt,-14.365,972.89,-0.433,0.366,0.608,-0.0,-0.0
433.5,6.01,PitchRollAlt,-7.739,942.408,-0.74,0.682,-2.889,1.0,1.0
434.0,6.01,Alt,4.015,940.684,-0.084,0.473,0.1,-0.0,1.0
434.5,6.01,PitchAlt,-56.098,961.983,-0.432,1.312,1.819,-0.0,-0.0
435.0,6.01,PitchRollAlt,-15.516,941.654,-2.46,1.326,-2.279,-0.0,3.0
435.5,6.01,PitchRollAlt,-18.847,948.207,-1.136,0.955,-3.53,1.0,2.0
436.0,6.01,Alt,-11.348,933.742,0.22,0.347,6.934,-0.0,4.0
436.5,6.01,RollAlt,-15.265,992.602,-0.734,0.047,-1.274,-0.0,1.0
437.0,6.01,PitchAlt,-1.078,945.096,0.32,0.668,4.194,-0.0,2.0
437.5,6.01,RollAlt,-1.246,932.321,0.576,0.28,8.354,-0.0,2.0
438.0,6.01,RollAlt,-46.294,939.676,-0.688,-0.53,-10.514,1.0,3.0
438.5,6.01,Alt,2.157,941.832,0.261,0.365,3.108,-0.0,1.0
439.0,6.01,PitchAlt,-0.424,938.121,0.225,0.658,5.048,-0.0,1.0
439.6,6.01,Alt,-0.766,934.718,0.28,0.241,2.627,-0.0,1.0
440.1,6.01,Alt,3.329,1011.137,0.098,-0.053,-1.547,-0.0,-0.0
440.5,6.01,PitchAlt,-0.353,940.625,-0.435,0.619,-2.613,1.0,1.0
441.0,6.01,PitchAlt,-18.392,968.251,-0.087,0.607,1.114,-0.0,-0.0
441.5,6.01,Alt,4.656,931.929,0.091,0.453,1.162,-0.0,1.0
442.1,6.01,PitchAlt,-12.914,939.819,-0.146,0.651,-1.065,-0.0,1.0
442.6,6.01,RollAlt,-23.544,951.085,-1.609,0.242,-5.216,1.0,1.0
443.0,6.01,PitchAlt,-3.827,941.132,-0.394,0.625,-1.01,1.0,2.0
443.5,6.01,Alt,0.445,973.83,0.413,-0.244,-4.247,2.0,-2.0
444.0,6.01,RollAlt,-22.951,947.265,-1.76,0.26,-6.575,1.0,3.0
444.6,6.01,Alt,2.428,930.559,0.288,0.246,3.11,1.0,1.0
445.0,6.01,PitchAlt,-8.139,937.618,-0.251,0.726,-0.908,1.0,1.0
445.5,6.01,Alt,2.04,937.135,0.2,0.53,1.276,-0.0,3.0
446.0,6.01,RollAlt,-25.158,957.595,-1.077,0.501,-2.161,1.0,1.0
446.5,6.01,Alt,-3.029,938.976,0.145,0.525,1.783,-0.0,-0.0
447.1,6.01,Alt,-1.896,938.278,0.291,0.064,1.515,1.0,6.0
447.6,6.01,RollAlt,-5.557,932.981,0.607,0.16,6.803,1.0,2.0
448.1,6.01,Alt,2.828,972.871,-0.256,0.483,-0.651,-0.0,1.0
448.6,6.01,PitchAlt,-17.85,975.582,0.105,0.602,1.131,-0.0,-0.0
449.1,6.01,Alt,2.092,946.74,0.177,0.395,1.503,1.0,-0.0
449.7,6.01,PitchAlt,-8.77,948.61,0.09,0.883,0.546,-0.0,1.0
450.2,6.01,Alt,4.062,943.617,0.105,0.396,1.709,-0.0,1.0
450.7,6.01,Alt,-11.854,957.578,-0.19,0.512,-0.465,-1.0,-0.0
451.3,6.01,PitchAlt,-1.841,935.632,0.065,0.684,1.521,-0.0,1.0
451.8,6.01,PitchAlt,-15.457,956.251,-0.429,0.752,-0.579,-0.0,1.0
452.4,6.01,PitchAlt,-5.917,933.712,-0.239,0.711,-0.95,1.0,1.0
452.8,6.01,PitchRollAlt,-38.826,926.271,-1.226,0.7,-2.041,2.0,1.0
453.3,6.01,RollAlt,-37.797,957.53,-1.665,0.326,-2.054,1.0,-0.0
453.8,6.01,Alt,2.446,978.419,-0.28,0.063,-2.347,1.0,1.0
454.3,6.01,Alt,2.907,934.831,0.33,0.416,2.894,-0.0,2.0
454.8,6.01,PitchRollAlt,-11.294,942.073,1.22,0.741,7.711,-0.0,2.0
455.3,6.01,Alt,2.82,978.672,-0.286,0.176,1.997,-0.0,-0.0
455.8,6.01,Alt,1.997,957.581,-0.33,0.455,-1.544,1.0,-0.0
456.3,6.01,PitchAlt,3.452,932.843,-0.152,0.578,-1.872,1.0,-0.0
456.7,6.01,PitchRollAlt,-1.861,967.341,-0.675,0.633,-2.451,1.0,2.0
457.3,6.01,PitchRollAlt,-32.981,958.966,-0.778,0.894,0.247,-0.0,1.0
457.8,6.01,RollAlt,-35.031,948.402,-0.794,0.208,-4.381,1.0,1.0
458.3,6.01,PitchAlt,-12.864,948.386,-0.015,0.88,0.226,-0.0,1.0
458.7,6.01,PitchAlt,3.567,934.704,-0.102,0.579,-0.334,1.0,1.0
459.2,6.01,PitchAlt,-5.552,941.054,-0.277,0.759,-0.674,-0.0,1.0
459.8,6.01,Alt,4.375,957.632,0.239,0.209,3.595,-0.0,1.0
460.3,6.01,Alt,4.258,951.994,0.348,0.468,3.755,-0.0,1.0
460.7,6.01,RollAlt,-3.354,955.672,-0.689,0.526,-3.377,1.0,1.0
461.2,6.01,Alt,-2.484,987.439,0.111,-0.049,2.38,-2.0,-0.0
461.7,6.01,RollAlt,-12.027,951.516,0.959,0.336,3.689,-1.0,3.0
462.2,6.01,RollAlt,0.186,959.513,-0.619,0.54,-3.035,1.0,1.0
462.7,6.01,Alt,-3.625,934.8,-0.081,0.417,-2.264,1.0,1.0
463.2,6.01,Alt,-10.857,947.859,-0.147,0.572,0.41,1.0,-0.0
463.7,6.01,Alt,4.421,932.726,-0.084,0.518,-0.617,1.0,1.0
464.2,6.01,Alt,-0.203,957.17,0.107,0.144,2.994,-0.0,1.0
464.7,6.01,Alt,-3.481,937.173,0.314,0.093,4.406,-0.0,1.0
465.2,6.01,Alt,1.408,988.72,-0.07,-0.402,-3.286,-0.0,1.0
465.7,6.01,Alt,2.858,940.454,-0.114,0.467,-0.955,-0.0,1.0
466.1,6.01,Alt,3.948,944.781,0.001,0.542,0.758,-0.0,-0.0
466.6,6.01,RollAlt,-18.616,931.482,-0.703,0.205,-7.998,1.0,1.0
467.2,6.01,PitchAlt,-13.516,942.644,-0.339,0.702,-0.535,1.0,1.0
467.7,6.01,PitchAlt,-10.558,949.242,-0.48,0.982,-2.673,1.0,2.0
468.2,6.01,Alt,1.452,933.471,0.281,0.351,2.299,-0.0,1.0
468.8,6.01,PitchAlt,-11.103,935.485,0.493,0.73,5.667,-0.0,2.0
469.3,6.01,RollAlt,-29.525,963.604,-1.233,0.345,-3.527,1.0,2.0
469.9,6.01,Alt,2.366,957.996,0.177,0.195,1.98,-0.0,1.0
470.3,6.01,Alt,1.02,933.281,-0.103,0.446,-2.617,1.0,1.0
470.8,6.01,Alt,3.392,940.391,-0.072,0.503,0.043,-0.0,1.0
471.3,6.01,Alt,2.29,935.431,0.335,0.246,3.546,1.0,1.0
471.8,6.01,Alt,3.761,993.755,-0.248,0.226,0.854,-0.0,-0.0
472.3,6.01,PitchAlt,3.492,930.348,-0.197,0.644,-2.135,1.0,1.0
472.8,6.01,Alt,3.064,933.531,0.03,0.521,0.633,1.0,-0.0
473.3,6.01,Alt,-3.694,937.897,0.222,0.234,4.174,1.0,1.0
473.7,6.01,Alt,-18.849,936.826,-0.37,-0.251,-7.627,-0.0,1.0
474.2,6.01,Alt,2.68,965.197,-0.143,0.265,-2.015,1.0,2.0
474.8,6.01,Alt,0.042,939.341,0.339,0.378,6.19,-0.0,2.0
475.3,6.01,Alt,2.38,949.491,0.272,0.35,4.897,-0.0,1.0
475.8,6.01,Alt,1.508,931.877,0.031,0.483,0.456,-0.0,-0.0
476.4,6.01,Alt,0.455,943.771,0.044,0.334,4.988,-1.0,-0.0
476.9,6.01,Alt,1.866,953.481,0.01,0.562,2.28,-0.0,1.0
477.4,6.01,Alt,-24.7,925.762,0.007,0.082,8.085,1.0,1.0
477.9,6.01,PitchAlt,-16.011,943.674,0.271,1.346,1.726,-0.0,2.0
478.4,6.01,PitchRollAlt,-31.243,952.975,-1.4,1.278,-1.21,1.0,2.0
478.9,6.01,Alt,-2.237,929.565,0.273,0.405,1.078,-0.0,1.0
479.4,6.01,Alt,-3.847,940.535,0.178,0.306,5.487,-0.0,1.0
479.9,6.01,Alt,3.953,952.212,-0.192,0.525,-0.098,-0.0,-0.0
480.5,6.01,PitchAlt,-30.788,939.832,0.355,0.779,2.034,-0.0,1.0
481.0,6.01,Alt,-9.165,961.056,-0.151,0.505,0.471,1.0,1.0
481.5,6.01,Alt,2.791,952.1,-0.021,0.481,1.59,-0.0,1.0
482.0,6.01,PitchRollAlt,-12.998,963.784,0.722,0.81,0.345,-0.0,1.0
482.6,6.01,Alt,2.593,941.029,0.179,0.444,1.732,-0.0,1.0
483.1,6.01,Alt,3.158,949.029,0.054,0.379,0.525,-0.0,-0.0
483.7,6.01,PitchRollAlt,-18.819,953.478,-1.025,0.973,-3.893,1.0,2.0
484.2,6.01,Alt,4.127,936.03,0.309,0.564,5.208,-0.0,2.0
484.7,6.01,Alt,-1.845,967.597,0.145,0.332,2.951,-0.0,1.0
485.3,6.01,PitchRollAlt,-10.676,939.492,-1.133,0.711,-5.89,1.0,3.0
485.8,6.01,Alt,1.063,992.098,-0.088,0.041,1.974,1.0,-0.0
486.3,6.01,RollAlt,-7.533,975.011,-0.801,0.472,-3.63,1.0,1.0
486.8,6.01,RollAlt,-2.898,987.309,-0.628,0.555,-1.889,-0.0,1.0
487.2,6.01,Alt,-1.627,973.174,-0.55,0.278,-4.463,1.0,-0.0
487.8,6.01,Alt,4.833,944.392,-0.286,0.573,-1.089,1.0,1.0
488.3,6.01,Alt,0.681,966.474,0.273,0.039,2.551,-0.0,1.0
488.9,6.01,PitchRollAlt,-9.521,930.085,-0.781,0.764,-4.578,1.0,2.0
489.4,6.01,Alt,4.535,939.838,0.117,0.42,1.775,-0.0,1.0
489.9,6.01,Alt,1.932,940.307,0.381,0.551,2.08,-0.0,1.0
490.5,6.01,Alt,2.75,958.745,0.161,0.505,1.697,-0.0,-0.0
491.0,6.01,Alt,1.787,964.788,-0.413,0.554,-1.267,-0.0,-0.0
491.5,6.01,Alt,1.939,960.935,0.145,0.226,2.325,-0.0,-0.0
492.0,6.01,Alt,4.843,928.873,-0.037,0.539,0.031,-0.0,1.0
492.5,6.01,Alt,1.998,946.385,0.35,0.369,2.436,-0.0,1.0
493.1,6.01,Alt,0.316,941.815,0.34,0.276,4.763,-0.0,1.0
493.6,6.01,Alt,-4.81,954.783,0.287,0.434,3.694,-0.0,-0.0
494.1,6.01,Alt,2.382,942.089,0.108,0.503,1.577,1.0,1.0
